name,Latitude,Longitude
bien etre beauté,47.771839099991475,1.6226785
la boîte à pain,49.26059339962804,4.047567099999999
noz,50.10423733918405,1.8589989659741408
beaugrenelle - panoramic,48.849232928309846,2.2829127013880597
max mara,45.7598457003781,4.834101999999999
sport 2000,46.25601620030098,6.8232211
amplifon,45.84864720036533,3.5357965
proxy cycle,45.57242350040355,5.958396699999999
cigusto,43.60986350054114,1.3930946
saico,48.0547982591504,7.332776277512372
intersport,49.010159870242006,1.1731280507338289
orchestra,47.50169390005328,6.8133769
poissonnerie bulcourt,50.44662659935509,3.4242448999999997
intermarché express,48.87513169972329,2.2918795000000003
bonpreu,42.43405340051416,1.9266511000000002
carrefour market,43.225629628846114,-0.8852469015324989
celio,48.621057699786284,2.3472679999999997
vague émeraude,48.64904299977934,-2.0254496
florentin,43.726203100539564,4.7067758
photo max,43.78366010053849,4.0902678
génération racing auto,43.36206202957207,5.238454175558428
cartridge world,48.70200579976625,6.1757855
cathy,44.350374200517145,2.5751059000000005
pénélope,43.49030660054193,-1.4756762
ideal,49.11715519966336,6.1737979
le canebière,43.29554510054143,5.374698199999999
mère poulard,48.454034199827504,-2.0446542999999995
giant marquette lez lille,50.679986299308254,3.0830461
intermarché les 4 saisons - sas janeli,44.36122274407818,2.5896386278034456
intersport,49.33131329961072,1.0988210999999999
optic 2000,43.587798900541365,1.3540739999999998
belle lurette,48.46216389982549,7.479526700000001
carrefour,43.90123020053568,-0.4838240999999999
sembat pressing,48.833266199733664,2.2429289999999997
le rive gauche,43.59748350054127,1.4296453
yalouna boutique,48.88928019971978,2.3718326
la panetière,50.71958329930062,3.1471719
barette,49.61237689954275,1.5453115
pressing des cordeliers,43.34636710054177,-0.2623061
mourier,45.05690210046272,5.055075799999999
maison de la presse,48.194914428466596,7.31990629147323
paulette,43.61653170054108,1.4390383
burton in london,48.00263169993706,0.1970197
bb pneus,48.83411969973348,2.2338933
dum dum import,46.587998200241984,0.3391908
intersport,45.52931120040915,5.6883874
brioche dorée,48.04417959992714,0.17343319999999998
les 2 épicuriens,45.75881240037825,5.6895772000000004
casa portoles,42.804747534097295,-0.41712622852783304
papinou,44.609219800500796,2.0338288
couleurs des thés,47.67727910001336,6.5027489
fnac,48.79949519974205,2.6075843
la châtenaysienne,48.76254319975122,2.2834095
posi'tif',43.632199600540915,2.2746524
le petit éléphant,46.572071800244935,-0.7706265
distri-center,49.402522599593375,1.1577484
cavavin,47.6588271000176,-2.7628233999999994
newco,44.78029100048773,-0.6881474999999999
art'club,47.385347857615876,6.771295570338632
pierre juniors,45.06728450046169,4.832456100000001
pharmacie buard,45.42004880042274,4.3924425
kehy maroquinerie,43.700471700539985,7.2563174
feu vert,49.36784509960179,3.3155163
le moulin et le boulanger,45.72918110038241,4.8536042
laboratoire analyses medicales du foron,46.06741030033192,6.313462100000001
sorry dad,43.59761510054127,1.4484257
norauto,44.878038831391,-0.5653266082586749
épicerie vrac,45.530520603900854,4.617251131293948
intermarché,43.00638700053672,1.1280211
free beach,43.27596310054126,3.4850192999999994
kenzo,48.32865999985824,4.107345499999999
toyota and volvo,46.3162265002907,6.1095552
institut ephelide,43.61442670054109,1.0825179999999999
compiègne mobile,49.4183645995895,2.8230268
parashop,50.61734149932054,3.1302747
chelles exotique,48.87235739972398,2.5789186
les bleuets,44.10257447795853,1.0865022975677046
intermarché super,48.43183369932952,1.4936193675804357
maxilivres,43.83740100053732,4.3574858
carpy coiffeur,47.58737550003392,1.3331862999999997
garage boileau lagache,48.843002999731276,2.2631675999999996
ferme du paradis,50.53570259933686,3.0156534
bar tabac presse,45.708860628116064,4.886939833078386
épicerie,43.94753510053435,4.8126019
margaret,47.39523300007697,0.6862465999999999
boucherie halal nimoise,43.84282850053719,4.3687955999999994
artval,46.830452300195425,-2.1317871
noz,49.24624039963157,2.4401398
beauté pastel,44.76197890048921,-0.5588517999999999
look canin,48.520703499811084,-2.230636
gary,48.87733259972274,2.1815257999999997
ikks men,44.66103270049703,-1.1692468
l'atelier,48.28791389986819,4.0769601
station dyneff,42.54973243913939,3.040520086806059
emmaüs boutique solidaire,48.891493699719234,2.3485533
boucherie bilal,48.915542499713276,2.3589530999999995
marionnaud,47.90318609996068,1.9032841999999999
rosa clara,48.87088265675529,2.317054909063616
urban studio,47.85606119997176,-1.6886262
lidl,48.532320229937845,7.499965995973017
l'ancienne crèmerie,47.90024199996136,1.9098985
la bascule,45.9215609003545,4.8821362
boulangerie de la commanderie,48.685943699770206,6.168791099999999
toyota occasions plus,45.16963848814468,5.689803286294699
presse l'océane,47.5985236766293,-3.1139419080069786
leader price,44.17554121293619,0.6333126957634883
kiabi,45.18603199854254,0.7631813678467617
avia,47.25835940010685,-1.5798058999999998
boutique grandes lignes,46.126627414160616,3.43062671707337
intersport,44.37399990051583,6.6812517
audition conseil,43.572161100541486,7.0006623999999995
proxi supermarkt,43.948566500534305,6.8103473
trocadéro maroquinerie,50.289914642812036,2.7743941600606217
kes coiffure,45.753872200378936,4.8420062
merlin,47.80966179998265,-2.3827095
dufay boissons,47.35100680520261,6.368930332733613
papeterie pouteau,47.218711800115365,-1.5508085
paul,43.556258100541605,5.4191558
la farandole,46.14722713414909,1.512721080990034
d prodéco,47.67316680001431,6.5150723
so chic,48.63358619978319,-2.0552578
château saint-louis la perdrix,43.77706100053863,4.5005030999999995
saint-maclou,48.534166735207506,7.694030220442401
e. leclerc drive,48.71137510078638,3.733073534054972
"le commerce, bar, pmu",48.37223599984759,6.292216400000001
bricorama,48.7693330990948,2.36873940523545
systeme-d',44.05718930053065,5.051386999999999
foot locker,47.74833809999694,7.338227299999999
station service e. leclerc,47.62887035019777,7.260266049999981
roberto cavalli,48.852514299728924,2.7842821999999994
cerises2b - vente de fruit,43.996658900532786,5.145532
darty,48.88335319972125,2.3453129
le doge,48.87446429972344,2.3182764
tentation,48.8417182997316,2.3079072
saroche,43.10877520053891,6.039596099999999
la fine gueule,48.823460999736106,2.3537855
auditionsanté,46.81839750019781,0.5424089999999999
relay,46.98737713026759,3.1506596060548775
monoprix,49.4960404995707,0.11152379999999999
biocoop callune,48.05788619429037,-2.9502253124637448
pixou - phone emergency,50.631252699317784,3.0593649
élevage du maine-lezé,45.594735500400624,-0.0575077
l'atelier du train,47.892675799963165,1.9179352000000003
denimal,46.985874600164166,4.824459999999999
yves thuriès,48.82628489973541,2.3267329
promo cash,48.747729899754894,1.3515748999999997
gedimat,45.729001200382434,3.2240592
market +,43.69402180054008,5.504162
garage de menucourt,49.02456596597346,1.9857451384274245
croq'sous,48.11112909991107,-1.6826824
cavavin,48.85457199972838,2.3859476999999996
citron basilic,47.873373899967696,-3.9183143999999994
orange,47.239173900110984,6.0217908
mobilier de france,43.449974800542,-1.5698459
300 pixels,46.49641370025882,-1.7866094999999997
moda giovane,45.764329300377455,4.8427401
carrefour market,49.47605440239491,1.1078868559834023
boucherie montaigne,49.40918945220731,2.1119684663241074
le garden,43.27594710054126,3.4855174999999994
le corona,46.82050820019738,0.5444402
patchoulie,45.75464090037883,4.8270302
comptoir landais de peinture,43.8999201005357,-0.48526499999999995
poltronesofà,48.882192899721545,2.4690070999999993
au cœur du marché,48.87688759199256,2.35489018398266
franprix,48.84877999972982,2.3131688
la p'tite boulangerie notre-dame,44.85142830048174,-0.5714215
point s,44.15255100052685,4.647923999999999
gitem,45.40499430042454,2.0458944
mijo,43.527308500541764,3.9278703999999998
le chant du pain,48.815848799738,2.3678112
carrefour contact,48.72255219976113,2.4992218
le figaro de saone,47.22583530011384,6.1197805
donna più,47.90043219996132,1.9030887
la cigogne en vrac,48.49584379981721,7.4673704999999995
la glanerie,43.646872500540724,1.4222968
atol,48.98785479969535,2.2453611
maison louot,47.32320390009278,5.032924199999999
la délicieuse luzacaise,45.79993170037239,-1.0484740999999997
marine diesel,47.2580208001069,3.647984099999999
nul pain ailleurs,43.72187160053965,5.542776
my bridal house,43.29634300054141,-0.37115419999999993
barber ink,48.8465075997304,2.3808234
badot - volailles,46.673392100225904,5.5556472
obs le confort,45.18655390044936,5.7303737
marché bio voltaire,48.858347199727454,2.3796832999999995
pause coiffure,43.29949030054146,-0.3682969
épicerie mazagan,46.811018800199264,1.6804319
pfg,49.027066099685634,2.2236641
garage bauer,49.29212687715674,6.539059477245813
la maison normande,49.459652799579494,1.0548873
librairie saint-etienne,43.60043290054122,1.4512993999999997
art contemporain,48.582499999795814,7.7388428000000005
zeeman,49.923470199469776,4.0865347
be clean,42.69370140052649,2.9311490999999994
carrefour,48.430108268732866,2.1597434464514804
ziklop stor,45.77297405882955,4.866281108790363
pacaud,45.82812280036833,1.2598543
vente de miel,45.25387450044202,2.5396815999999998
frou-frou,43.604101300541195,2.2410644
m. coiffure,45.32272150043422,6.5381572
bijou brigitte,46.19263190031162,6.235497299999999
vis ta vue,43.65337430054066,4.0006921
optic 2000,48.939863499707236,2.1594467999999996
gifi,45.14826630045342,5.694473699999999
au coup de peigne,43.7241015005396,7.108117799999999
saint-maclou,50.63265392704335,2.9643942982282723
naturalia,48.57885589979672,7.751917300000001
campanule,49.762675674445866,4.719548601456927
la tabatière,46.65063560023022,0.37439259999999996
super u,45.490729738485214,0.27481745573581146
netto,46.632894516667605,1.0612942184941818
les al'pains,44.02656487223287,5.9378359007814066
endurance shop,47.25652470010725,-1.6353061999999998
lidl,47.125913600135085,-2.1185615
othello,43.27005700054119,6.6422661
alain afflelou,44.84076570048266,-0.5782155
au doux péché,47.45337240006408,-0.5264962
boulangerie croc miam,50.24741669939736,2.8718050999999996
poulaillon,47.74386889585422,7.4159077275655045
gifi - ameublement et décoration,44.875052800479686,1.2224267
aqueduc vision,48.76199649975135,2.3269456999999996
marie blachère,48.850298499729455,2.6214095999999993
babou,49.18051719964772,6.8909312
leader price,43.602584900541224,7.062202799999999
onespecs town,49.18340709964703,-2.1094317
tabac – presse – loto,46.906377600180285,6.3473618
la p’tite boulangerie de bacalan,44.862947300480755,-0.551344
asvs alarme auto-surveillance,48.846950299730274,2.3699445999999997
boulangerie-pâtisserie streiff,49.09924279966779,6.1746258
mephisto,48.852101999728994,2.3285909
mma,47.1283974842338,0.9963764803417162
grdf,48.83086089973427,2.1185916999999996
couleurs d'orient,43.6041399005412,1.4370097
bricomarché,43.66750495088295,7.193444671038129
tchip coiffure,45.938047200352,-0.9638189000000001
station service inter marche,44.871266700480014,-0.46901469999999995
maison de la presse,45.54975200040651,3.7393549
proxi,49.483854599573654,2.9937746999999995
boulangerie dia,43.40555500054197,4.9841091
chateau maucoil,44.090260100529385,4.8074052
cuisines arthur bonnet,43.65953120054057,7.1932613
franprix,48.94595349970571,2.3673787999999996
cindy fashion,48.87216179972403,2.371473
darty,49.40706259959227,2.7800542999999998
carglass,43.698636700540014,4.641886099999999
new song heng,48.8263255997354,2.3052352999999997
l'amylois,45.21164300044667,5.7860747
retoucherie ivana,48.797197399742615,2.4570569
fleurs de peaux,49.447339099582486,1.0988363
optique services,48.6350865997828,-2.013965
photomaton,43.551527703305815,1.506783164073678
nosso,45.16337530045183,5.7511342
laurine,46.581001800243286,0.3408359999999999
ylinne,48.86544019972571,2.3506176
laverie saint-roch,43.88852500053602,-0.4995396
jacques tordjman,48.690361399769095,6.1796108
vesti-boutique (croix rouge),47.84103909997531,-0.33309949999999994
abc dépôt vente,47.80809366671756,3.5799554083943033
total access,43.331551300541676,3.2474107999999995
optical discount,43.673660100540374,4.638627399999999
oxyde,48.86362549972614,2.3485289
garage magnin,46.23566329042473,6.651801700515224
norma,49.10925580025443,6.738850157132242
rituals,43.59474510054128,4.992183999999999
ford - garage de paris,50.69601299930516,1.6094454
b'n bicyclette,49.22284929963731,2.9058885
charline coiffure,45.795896700372985,1.1368277999999998
un monde à part,47.05469600014996,6.6046013
veetha,48.87282109972386,2.3503316
air styliste coiffure,46.78260380020484,4.845273599999999
harley-davidson,43.63511820054087,1.4736368999999998
boulangerie patisserie thibaud,46.785799500204206,-2.07016
cora,47.52815800004733,6.808542699999999
e. leclerc - saumur le centre,47.262433525910964,-0.09140902310785048
orcanta,51.03469269777689,2.375611810799381
proxi,46.92320990017691,-0.7519584
bretagne camping cars lannion idylcar lannion,48.69923609976691,-3.5327927999999997
poissonnerie schaller,49.11408959966412,7.0966174
julien d'orcel,44.0048960005325,1.3549593
le comptoir de mathilde,47.215062800116144,5.9462227
citroën psa retail argenteuil,48.95488239970353,2.2547299999999995
urut bali,46.93989540017352,-2.174885
nespresso,48.112459899910746,-1.6789055999999998
ty forn nevez,48.37265759984749,-4.0197048
l'hair du temps,47.35957940008485,0.6947682
tradivia,48.96655769970062,2.2823980999999995
adopt',43.295074400541424,-0.3685305
paragon gourmet market,48.82439349973587,2.363244
épicerie de la vallée,42.46575960051583,1.8893981
baechler,48.85602799972804,2.3069194999999993
toyota,48.888482001582574,2.1921071860671346
moulin de paiou,45.91604790035531,6.123703099999999
dessange,48.84626889973045,2.2142219
optic2000,48.81082539973924,2.3841021
la place,43.28642560054135,5.3833155
garage quemin (motrio),45.53899950040788,5.103393399999999
gdm,43.552629800541624,7.0194576
cellier de revigny,48.828265499734925,4.9878092
bio epil,45.19003160044899,5.7295007
leonidas,47.46848760006071,-0.5506802
carrefour city,50.701801699304035,3.1355244999999994
boulangerie clapier,43.64907220054071,3.5039596999999993
proxi,48.70283949976603,-4.0260838
utile,45.18539610044948,5.749552099999999
le miel de mon petit rucher,44.881189320095686,-0.681939419235038
janklo's world,45.7640692003775,4.8281764
lidl,44.77164290048844,-1.1176108
parcs et jardins,44.626379100499584,-0.1354815
midoré,48.87493669972334,2.3249059
au pétrin moissagais,44.854000000481534,-0.5717869999999999
potins patines,44.83832340048285,-0.5908208999999999
vaica,50.64852179931439,3.1166436
maxi zoo,45.23815690044377,5.6688822
boulangerie chauvin,47.9250819999555,-0.8038101
emilia g,45.75166560037927,4.829333999999999
le petit casino,47.32886200009156,5.0382432999999995
halle ô discount,48.83700185988026,2.6396397837130956
kisly,47.64612740002049,-2.0746098
panier sympa,44.82864930048369,2.1727218
utile,45.76355090037758,4.873401699999999
optic 2000,45.8054384003716,1.2283075
man coiff,50.6195316231267,3.0512502409512003
nomadis,45.6386666003948,0.2045857
hobeki coiffure,43.39275420054194,-1.4555997999999999
linvosges,49.11729589966332,6.174904999999999
la crémerie,46.31473130029097,5.236971099999999
maison de la presse,45.64303090039421,-1.0882728
saveurs et délices,43.527499800541776,5.4424421
domaine aurelien febvre,47.3245274000925,4.4492291
cycles miloux,47.93154069995396,-2.3964429
téléphone store,42.776310400529695,2.9131863999999994
capanimal,45.56471930040456,5.303880599999999
art'ms,45.47486610041599,4.510843
coiffurisimo,45.88567667451763,4.8329336150808055
aurélie coiffure,45.86049860038336,1.3850191500013165
lidl,45.685135538950085,-0.16547751399216132
jack & jones,44.836870400483,-0.5735210999999999
parapharmacie,46.48942020026009,3.9931852000000005
écouter voir,43.94820200053432,4.805338999999999
jouéclub,48.747721199754906,1.3476274
brioche dorée,48.96564419970085,1.8623835
le mille feuille,43.60542440054119,3.7367259
picard,47.264534500105526,-2.2267327
mod,43.30376938346375,5.379509850706878
dacia saint-quentin,49.84138569948873,3.3226061999999996
château haut barrail,45.35561980043041,-0.8900587
proxiconfort marvil,49.44185149958381,1.1464412
galerie d'art,45.59941170040002,-0.9935157
lavo-pressing,43.62092030054102,3.8729172000000003
laverie saint-michel,48.58877966083222,-0.357884727224203
roulez facile,46.23693600030421,1.4851268
pressing du midi,48.84700059973026,2.4353675999999997
kusmi tea,48.890866876328275,2.2368231477737988
domaine du vieux loup,47.818287899980625,3.7262538
leonidas,50.63614796191728,3.0638364535880416
franck provost,48.71176479976383,2.2448019
telecom 1,45.61721000039766,6.7674019
autodiscount 69,45.69865010038664,5.017592999999999
sablé cuisine,47.83741329997616,-0.30445559999999994
la cœur des pains,48.89078739971943,2.3784108999999996
carrefour market,45.52659970040947,4.6094513
cta - centre technique automobile,47.48706070005654,-0.5440722
charcuterie -traiteur,48.549704699803925,-0.42441049999999997
boulangerie la rabaterie,47.39232280007763,0.7229547
presse,49.96629749945997,1.9423413000000003
starexcel,45.187291900449296,5.758795699999999
bonobo,45.9844758003449,4.7383818
histoire d'or,47.2148659001162,-1.5556598999999998
style & griffe,47.55535150004118,5.678711699999999
passion fleurs,45.78055730037515,3.1098082
la havane,50.359126399373416,3.5223436999999995
centre comercial la capelle,44.10026469884061,3.082663936468284
pharmacie centrale fertoise,48.58999260177772,-0.35740179588364057
aldi,50.460702199352205,2.680089
pressing de l'étoile,48.56915429979911,7.756742699999999
promod,45.15853733637741,5.732206106800802
éram,48.891216999719305,2.29093
nonna,48.42254019983526,7.662984899999998
aux trésors de la terre,48.0706089999208,6.8785774
hairbane coiffure,48.45231089982793,-4.4658244
l'auto e. leclerc,48.653837332635554,6.179151021377893
boucherie betemps,45.21592570044619,6.4746247
boulangerie-patisserie,43.35078430054178,5.376953799999999
au palais de la gourmandise,48.43083659983321,0.0907464
green éco concept,43.64779003183358,3.737189526320102
netto,49.76503199982949,4.69802699997089
19eme art,47.840805699975355,-0.33650109999999994
louis vuitton,50.63887189931629,3.0638439
mirabel,47.56235010003961,7.5266742
céline fleurs,49.397344699594626,4.701813099999999
start people,46.31993810029008,-0.4560332000000001
le fournil,44.87564570047962,4.878798
l'étamine,47.21403460011638,-1.5852359
carrefour contact,49.479155848911084,4.576126309078834
pmu,45.731256100382126,3.099413
dufoux chocolats,46.30568440029252,4.832143899999999
coiffure masculin,48.52254969981062,-2.2333318999999996
jovenin,50.638615043230594,2.3941861953788304
croix rouge,45.737216100381275,4.8649629
alimentation générale,48.84510769973071,2.4316609
domaine michel thibaut,46.83529910019448,5.702151
chauss expo,46.82623330019626,0.5593536
clean energy planet,43.628079200540945,7.037188
cycles valérian guenin,47.8013396999846,3.5792274999999996
chausson matériaux,43.60329850054121,3.4734874999999996
franprix,45.78144650037503,4.8335273
spar,42.305838200506834,9.152411299999999
chaussea,48.610728399788826,-2.0647131
les piscines de bacchus,44.90739770047683,-0.23151350000000004
onyx racing by enjolras,43.67411380054036,4.0594672
boucherie charcuterie,47.13067934426113,6.525345474278669
relay,48.97033819969969,2.0775742999999998
max möbel,47.309835900095706,5.0969045
cœur d'artichaut,49.182279099647296,-0.3729239999999999
bureau vallée,48.474658399822424,-2.0437406
scudettini,49.51512869956609,5.7350750999999995
antiquités,48.707398169960626,2.515699581170115
optic chabat,45.71240720038474,4.8035326
tabac presse loto hergle,49.11022819966509,6.167074700000001
biocoop paris xvii,48.89061739971945,2.3245337999999998
goyona,48.82312439973618,2.362591
la mie dorée,45.316319200434975,4.728517899999999
eric kayser,48.8529548997288,2.2685714
gédimat,48.933023799708934,2.1804338
pré de chez vous,45.46940150041668,4.3603981
texto,44.558722600504325,4.7509371
keria,44.040872805304396,1.382862896162697
maison de la presse,48.68848329976958,5.3237328999999995
badoz vins & fromages,46.834119500194696,5.708633800000001
pollen fleurs,48.02470409993178,0.2042352
fournil & maie,51.0241171813749,2.348909702800765
roady,48.721876399761314,-3.4796231999999994
casino,43.66340300054053,7.132137199999999
midas,44.03866380053133,1.3825323999999999
le fournil d’ambrussum,43.68774540054018,4.132057099999999
leader price,47.793913355843536,-1.0637833572436632
meubles hermitte,44.55743700050442,6.0794847
formul,47.659023800017536,-2.7559141000000005
bijouterie favre,45.96011340034864,5.3579447
glm,48.02373019993202,-4.5378517
bâtiment la salers de la brugère,45.44189600042005,3.3958250999999997
pro-duo : grossiste coiffure et esthétique,44.83750600048294,-0.6703208
kik fashion,47.68352270001191,6.4953168
maximarché,47.039575097144294,6.069478211616349
casino,42.69420660052651,2.8901506
abc du cadre,45.78093090037511,3.0792083999999997
tabac mini snc,43.646461194740425,0.5837983712230386
ferme herrenstein,48.82257579973632,7.4146986
philippot,48.733172599758504,6.169184199999999
l'épicerie 2 pauline,47.46992610006038,-0.5513979
guillemin,46.97654900016607,5.798882
aux armes de falaise,48.89702859971787,-0.1989174
desclicks - l'informatique solidaire,48.60599969979002,7.7524656
l'hair du temps,45.4162157004232,4.4102366
la panière,46.19191270031172,6.210072899999999
les viviers de banastère,47.51958640004925,-2.6623051
colmar literie,48.102217449119735,7.3613763757942134
couleurs d'argence,43.677497410362115,4.1214080097883095
les ateliers passion,46.62999030023412,5.2216096
galerie marc limousin,45.897413500358105,6.1277531
delaunois sarl,47.34069850008899,0.6125873
guinot institut,43.67500000054035,3.9833459999999996
e. leclerc,44.918549782283534,-0.4804776590390449
pimkie,48.39262759984258,-4.4825349
galaxiphone,48.673443099773316,5.8900243
inimitable coiffure,48.88118279972179,2.3273163999999995
babou,49.85790289948491,3.2488722999999995
mexx,48.32902349985816,4.1065507
grand litier,48.879435199722245,2.3181698999999996
aux fleurs de la fontaine,43.83261230053743,4.3512318
carrefour market,49.29733359961904,2.8001629999999995
poissonnerie de valbonne,43.64253290054078,7.010758499999999
intermarché,45.80356171049116,0.14023782894741152
la ferme de vaucelles,49.02314159968661,2.2327272999999996
mor'les cycles,48.57558366463726,-3.828730468831587
easy vape,48.92182089971172,2.187002
nataly b,45.89663840035823,4.433146399999999
narbonne accessoires,48.6911840997689,6.020911199999999
garage renault,47.5984910406124,-0.8342441223830238
la cave,47.04572860015182,-0.8759291
baungart,48.543038099805564,7.494912799999999
squal ktm,48.62470349978539,1.8255434000000001
pédron jp (casse),48.4584598998264,-2.7099767
croquembouche,43.43247820054201,6.7346509999999995
kia pertuis,43.681613194926065,5.503447073917571
lunettes pour tous (retrait et sav),48.86377019972611,2.3481484
tabac sports,47.98027399994238,3.3951314999999997
la halle aux chaussures,48.22772670791506,4.715376707914593
joelle cannet,48.834252799733434,2.2310488
altheagrey,45.76040400037804,5.6853912
boulangerie desmarieux,48.27114979987229,-1.854484
vival du parc,45.618136186179115,-1.0120794255590833
la malleterie,48.881857299721624,2.3715061999999993
les dessous de flo,43.594727700541306,3.8699251000000006
la cabane des légumes,45.569185100404,-0.7451219
camaïeu,48.27335349987174,6.966871499999999
boutchou,47.752646299995945,0.8628330999999999
bio monde,48.79435419974333,2.3369103999999994
athos voyages,46.48011500026177,3.97863
balletto,44.84272330048249,-0.5789427999999999
carrefour city,48.553973699802874,2.4306571999999997
galerie christiane vallé,45.779704300375286,3.0859841
alimentation 4 saisons,49.117643299663236,6.182836899999999
dietplus,45.187148000449305,5.7279071
les jardiniers de paris,48.55137250005968,2.411993249978094
nature conseil - au grain de blé,45.43298000042115,4.3890367999999995
sportonic,44.28161500052081,4.746857999999999
casino shop,43.0775713005383,5.926513599999999
boucher,47.177261900124215,3.0208646999999997
pile à l'heure,45.36746040042901,5.5921
villejean informatique photocopie,48.12106799990867,-1.7070297999999997
déesse & apollon,48.838461799732386,2.2896368
garage maurice brunstatt,47.71418850000486,7.314639000000001
sfr,43.592529800541314,2.21614
garage richard,43.22202988104985,0.09421849261998502
boulangerie pâtisserie,43.25739200054107,2.9484811999999994
etik' & bio,47.89845559996177,1.9067994000000001
auchan,48.544625099805174,7.741006499999998
bleu coquelicot,45.93499760035247,6.6327561
netto,43.72928680053952,5.1658509
chez jean-jacques,47.903063299960685,-4.2823493
ikea,48.75926483791903,2.3852405524907705
total,49.390052464737835,0.6114822934362912
intermarché,47.33187605024666,5.09224824115354
mille et une fleurs,48.90442269971602,2.5869386999999997
brico dépôt,43.720425066760846,-1.1267331918655554
orange,44.40705060051393,0.7058313999999999
"bruno geyer, fleuriste",47.73336660000041,6.9693943
profil optic,44.93256843356082,4.893905082245678
optique conseil et tendance,47.55108740004213,6.433218499999999
jérôme et nadège ferburghi,43.471199800541974,0.04128849999999999
empreintes végétales,45.54392430040725,3.2485441999999995
le coin gourmand,43.51072170054184,1.3763540999999997
elliot james,48.58444269979533,2.4492081
kiabi,47.073986908837156,-0.8370211595809544
a+ glass,47.79696879998562,7.172828599999998
le cœlacanthe,48.375662399846746,7.5939513
domaine de lavabre,43.86964950555039,3.868489228556534
garage du moulin rouge,46.66908860022673,-1.2867894
le lave linge,43.58007543015732,7.052505773980216
intersport,44.23537539518727,5.912633033415353
laverie automatique,43.528397200541775,3.9324914
oxybul,43.603840000541204,1.4439101
flore & sens,50.01658789403925,3.7832070526338097
e. leclerc drive,47.796120599985805,3.5708034
lilou & charly,47.27887510010241,4.231009
l'art du temps,47.66603010001595,-2.9782895
le guiné,46.49614400025889,-1.7922254
absoluepil,43.576995600541444,3.8256236000000006
midas,46.79580180020224,4.4411495
les petits hauts,48.40451819983967,2.7005682
bureau vallée,43.65530180054061,6.9384898
boulangerie pâtisserie goesel,48.544048599805315,7.4927202
boucherie - charcuterie,48.620338699786444,2.4934826999999995
moisan,48.876629499722924,2.3386068
sport 2000,44.420526030419374,1.4376419884603895
speed queen,49.43709559958497,1.1019895
nicolas,43.482183400541935,-1.5611110999999998
vival,45.674148800389986,6.379448299999999
armor literie,48.105592099912386,-1.6726244
bosch service,48.77113379974909,2.3464244
ussel cuisines,45.56121030040501,2.3200838
la courtisane,48.80475179974076,2.289513
liberty belle,43.29356580054141,3.528909
vival,43.31119720054154,2.2146513000000003
saveurs de nos fermes,45.655144100392576,6.359365199999999
centre de beauté stahl,49.21588079963904,4.001474999999999
loisireo sainte eulalie,44.89966360047751,-0.49252869999999993
ferme la borie d'imbert,44.81799240048459,1.6023502
la boucherie d'angles,46.40842210027461,-1.4026867
gemo,49.61416298852069,0.7731599308272511
jet 7 bike,43.55204630054163,7.005896400000001
nike,43.59487220054129,4.9946717
h&m,47.74838799999692,7.3386755
citroën,47.56789555810503,1.3271174039384295
au naturel gourmand,48.18358459989356,-1.4375231999999998
la galerie du cadeau,46.336879800287136,5.1287684
unlimited epil,43.52629240054178,5.4507319
aux produits du terroir comtois,47.290371213148916,6.645270115456144
euro’or,43.68353550722493,4.153690765080988
zara,48.78083790533968,2.22064482653177
hanaéline,46.126000600322506,3.4207281999999997
la superette,50.71741719930106,2.2810851999999997
j'aime sport,46.081265800329724,6.7261915
smi treille,46.68727089738203,5.50581750639826
ingrédients,44.83888990048282,-0.5750758
tabac presse,45.43413430042101,5.7549249
iceland,49.176783399648656,-2.0887701
orthi château,48.80435969974086,2.1324583999999995
larivière,43.28684470054135,5.5974482
tarabio,47.228395900113306,6.0319789
point sourire,49.38175809959844,3.3245318
en mode tendance,45.76578950037726,4.8427928
du thé et des laines,43.61014690054114,3.875540199999999
optical discount,49.43133439958637,1.0868902
au péché gourmand,45.42995450042152,4.3899169
boutique sncf,48.8387657285343,2.382692027156933
carroserie benji,43.68291200054025,3.8111172999999985
france loisirs,46.126003700322514,3.4231914
renault,48.18060443428424,2.2524110561121486
prêt à partir,49.115628999663734,6.1782002
spar,45.77679542606295,0.5528771570571763
o'tera d'avelin,50.53855632963116,3.077085798840268
pull love,46.204907700309555,5.226042
go sport montagne superdevoluy sports,44.67681990049586,5.9273579
altuntas,46.130271200321836,3.4243854
intermarché,42.51471530051833,3.1071621999999994
le pacha,44.84181000048257,-0.5772719999999999
c. c. auchan,48.58735420212745,2.3043270609569846
boucherie chevaline houet,46.467533500264054,-0.8046063999999999
chartier,47.65641060001814,-2.7573741
monoprix,48.67562942731942,6.162533223929845
euromaster,43.57570530054145,1.4060970999999998
carrefour,49.59793136153501,3.227953062835097
angel styl',49.02620716243662,-1.2818527986071742
tourbillon,48.69510249976794,2.282804
agence maurice,48.57047449979879,7.687450999999999
speedy,48.656789099777434,2.4086092
ad,44.56574100028139,6.497646181319821
intermarché hyper,49.211108456384245,1.1825797409258767
xxl,45.983615100345034,4.7440592
norauto,48.57002721882945,2.625029006916386
la berouette bio,49.004575699691195,0.1508142
gizelle élégance,48.816241199737895,2.3514872999999996
pompes funèbres de france,44.76913520048864,-0.6168829
citroën,47.023504577668795,3.145144768572282
la boîte à lunettes,48.82744349973511,2.2410743
les opticiens de proximité,43.87054900053648,-0.48331900000000005
games workshop,48.87879679972239,2.3491051
fréquence,48.97242279969917,2.2553628999999997
flamant home interiors,48.85436539972843,2.3355612
barrois poids lourds services,48.76174439975141,5.1762958999999995
camaïeu,47.37341070008176,-1.1985005999999998
la cité des pains,47.50951490005151,6.7968732
sos aspirateur - centre de services - réparateur,48.93081069970948,2.0389801999999997
sfr,44.83853990048286,-0.5843957
tatoo'in,43.643513400540776,1.5225995
maseltov,45.764898200377395,4.901310299999999
grand frais,48.071415999920596,-0.796185
washmatic,48.82959479973458,2.3301571
maryca,43.60509010054118,2.2402605
la malle aux saveurs,47.087386500143154,-1.2819958999999999
day by day,48.38941399984338,-4.489725499999999
boucherie c charcuterie nativel,48.102213699913214,-4.000914
ciga vertes,45.19117290044887,5.721879099999999
j-d,45.292949700437646,3.3844882999999997
home atmosphère,48.589054999794186,2.248957
chez régis,43.60085360054123,1.4631286
tabac presse île de france,47.221673600114734,5.966907199999999
alouette optique - vision plus,44.795743091714165,-0.6671709428584136
web digital 14,49.23204563516505,-0.04175674014923235
concept bien-être détente,48.72711189976002,4.586178899999999
gamm vert,46.22268410030661,4.5206219
minelli,48.80702509974018,2.1308519999999995
par une si belle journée,43.68643050054019,7.105930999999999
world of toys,48.86928049972475,2.7858215
centre edelweiss,45.272063200439995,5.8911736999999995
villeroy & boch,48.8524992997289,2.7839510999999995
relais total la grande boucle,44.90371602745037,6.629145011820294
securitest,48.83398249973349,2.2335949
lollipops,43.60177080054122,1.4455423
emilien&coralie artisans fleuristes,45.77548360037589,4.8321535
le moulin de feucherolles,48.873854799723595,1.9736205999999998
berger,46.671519100226256,5.5674586
jacquel automobiles,48.40483919983959,6.830555
joffrois sarl,44.92121060047558,2.8374374999999996
techni'coiff,47.68904700001065,-0.16996839999999996
la petite maison du bio,46.1586604003172,4.1719374
j-f marmarot,44.93255267711157,4.893992678724698
cuisine elite,48.83421709973344,2.4037619999999995
aldi,43.58307881646913,1.27401298731403
petit casino,43.198508800540374,5.801893599999999
théodore maison de peinture,48.10612609991226,-1.6281173999999998
site d'escalade - contreforts de madelon,42.66207090052517,1.4406651999999998
maxplus,47.78602495440498,-3.335881200135828
saint-martin's yacht club,46.20700620030921,-1.3664416999999998
biocoop breg osio,45.59962890039999,5.2656983
gémo,50.78805039928765,3.1386996
montres and co,48.58743699979459,2.600912
max plus,46.99730028650048,3.1242310834472016
peugeot,50.745752599295635,2.2663735
boulangerie traiteur,48.91125719971434,2.2223047
mille sabords,48.928845499709965,2.0436143999999996
festival des pains,46.752552100210686,5.242678699999999
la maison régis bozon,45.756802700378536,6.5397587
gifi,43.34811700054178,3.2566907000000005
sfr,43.120066500539146,6.1284376
la gourmandine,44.753085300489936,5.3699852
librairie voyelle,46.495938800258905,-1.7814584
jeff de bruges,48.90656109971549,2.2844852
la savonnerie du soleil,43.28305040054132,3.5129997
alt'hair égaux,43.59104540054133,1.4449811000000001
meubles thibaudeau,46.609140400539445,-1.665250700029983
belle belle belle,45.1928927004487,5.729314899999999
citroën,49.644707799535055,3.2668636000000006
monoprix,47.99493599993891,-4.105914000000001
le relais des mousquetaires,44.99676710046856,0.8228771999999999
charlie,48.84653109973039,2.4383395000000005
fantaisy florale,49.04846596003492,7.295830702479703
boulangerie pâtisserie coic yvan et rachel,48.28415399986911,-3.4235403000000004
boulangerie ricquier,48.86457949972592,2.2824038
esprit création,47.71996950000352,-1.9761067999999997
natur house,44.87561820047964,4.8784113
axa congé-chabot,45.57984498287237,-0.5475745953033408
lmdw fine spirits,48.85181789972906,2.3383588
coiff hair 29,47.99506289993887,-4.0956816
au pescadou,43.460012300542004,3.4237439
kiné saint-max,45.74807950037977,4.871835599999999
castelnau pièces auto,45.02856830046551,-0.7911040999999999
botanic,48.189177199892214,6.469821399999999
mr.bricolage,46.116287747680715,4.963472720169834
carrefour city,43.69975680054001,7.2825741
promod,43.65087540054067,3.9797811
maison iso confort,49.14988679965527,-0.2647667
les bouchers de l'herbasse,45.12200810045615,4.9839804999999995
foto etxeberria,43.33951320054173,-1.7896284
marceau fleurs,48.88121119972178,2.236652
sidi brahim alimentation,48.8222525997364,2.3506498
blue hawaii girl,44.44399150051172,-1.2505074
carrefour city,48.74980439975439,-0.567507
garage pierre kieffer,48.827915799735024,7.960405
citroën,45.03484666468952,5.083992252177886
atelier afro,43.61082290054113,1.4511230999999998
le verre d'hugo,48.88999599573736,2.513146980571873
qipao,43.57200194708254,3.94090764183966
mont blanc expédition,47.21715190011571,-1.5493304999999997
franck provost,48.862567899726436,2.5043926
curiosités et jouets anciens,48.88377299972115,2.292682
calida,47.74721859999719,7.3392905
les savons de tante alouette,46.02479670033864,0.5017115
logix informatique services,48.90227249971655,2.2533667
parfumerie burdin,48.879325699722244,2.3540939999999995
coiffure actuel,47.37891010008058,-1.1877589
l'epicerie,42.79127600053023,0.3891339999999999
boucherie de l'éleveur,47.87668419996692,-4.1123413
chasse nature passion,47.337724609875224,0.699908763387446
dod,46.17733150031412,-1.1123812
la petite boulangerie,47.23090150011276,-1.5557404999999997
jm video,48.86865189972488,2.3718346
top laverie plus,48.071139699920664,-0.7646046999999999
nicolaï,48.860394099726946,2.3571404999999994
boucherie bakara,45.561513400404976,5.8984126
coiffeur bettina,47.55131580004208,7.5485993
auchan,48.980071499697274,2.0029768
le fournil d’ychoux,44.3276351005184,-0.9533096999999998
château d'ax epagny,45.937074976770774,6.078463420037335
entendre,45.308981000435814,-0.9401637999999999
ddp woman,47.90109909996116,1.9047253999999998
carrefour express,48.630707867446716,2.485619218086493
picard,43.704243000539925,7.267583699999999
pro rider 34,43.652743900540656,3.5517673
dog paradise,44.736374400491265,-0.6588528999999999
cathy coiffure,49.41933169958929,1.0901311999999999
porsche,42.67126570052556,2.8961063
cave de la madeleine,45.65882380039208,0.1714836
le moulin de cénaret,44.33521520051798,3.3837137999999998
cabinet d'avocat (lerondel-dearaujo),49.0413982996821,3.3951106
cali deli,43.600568600541244,1.4453533
singer,47.233668400112165,-1.5355802
entendre,43.75420760053906,4.5139381
panier sympa,44.90071330047742,2.4591665999999996
interior's,49.439654099584345,1.0931386
manu'flor,43.33128040054169,-0.4367715
boucherie charcuterie,48.879703999722146,2.3492429
pc35,48.10655959991215,-1.668113
le comptoir de mathilde,48.86141239972669,2.3530393
l'atelier floral d'anaïs,44.94382970047351,4.8416495
boucherie de l'église,48.64216126973617,2.2296250714049304
coiffure l'atelier d'isabelle,47.267701900104825,0.8366235
maison constant,44.45208730051123,4.3425004
la p'tite boutik,44.53411710050599,5.8232046
team mocellin,45.15093390045313,5.3221174
les vins de la côtière,45.90126250035754,5.198783399999999
mise au green,47.68563480001144,6.495419799999999
le comptoir - seigneurie gauthier,44.83748110048294,-0.6697922999999999
envain matériaux,50.47080987608339,3.2502751289752414
vernisse fleurs,46.79028620020334,4.3884159
nature et découvertes,47.32250120009295,5.0386639
mise au green,46.98953280016342,3.1615364999999995
picard,48.90632052340743,2.286681578891927
ami chien - salon de toilettage,43.61705980054107,3.8746776000000005
panier sympa,47.92950489995444,2.1402938999999996
cop. copines,49.357186025933395,6.164667792863803
martelot,47.81449839998152,-3.3941899999999996
le moulin à pain,48.916446099713056,2.4440563
proxi auto,47.4931313000552,6.8401674
irrijardin,49.078319899672955,6.1077224999999995
leader price,43.41986753272494,5.356611308669453
securitest,48.14631322072695,0.16902510314099525
antiquités laure baudet,43.596196500541275,1.4489765
mda,45.64429520039404,6.3310963
intermarché,48.03796379279145,3.0522255182144247
pompes funèbres fune center,47.84374149997466,1.9161918
la pétrie,49.89468619947641,2.2922188999999995
market,43.338773900541725,-1.7828400999999998
coiff and co,48.40212879984025,-4.468235
castel auto,48.0394055720369,-1.6824774859152256
béatrice coiffure,47.38137840008004,-1.7104634999999997
dezemerie,45.188376600449175,0.7547458
tabac,47.774155799990936,6.9974652
pandora,47.77568649999059,-3.3427743
dacia,49.277812599623815,2.4889
sandra coiffure,43.295298900541425,1.2261915
intermarché,45.390528900426276,3.9466821
maison valverde,45.75929400037818,4.8420350999999995
chris'coiffure,48.769962099749385,2.3920745
optic duroc,48.80635039974035,2.0691266
magasin vert,48.46343580061075,-4.271710402233393
loto tabac presse du stade,47.24402480010994,6.005711299999999
l'île aux trésors,47.149110334964504,6.325024480292452
camaïeu,46.67409570022578,5.541485399999999
carl,48.84001579973202,2.3885455
viaa international,48.874443499723476,2.3256119999999996
pérol optique,46.30620390029244,4.8302019
bréal,48.734809099758095,7.052795100000001
sky phone,48.88412339972106,2.3598804999999996
grand optical,48.87802849972256,2.3270698999999997
la boussole,49.11795189966316,6.1802278
les paulettes,49.30735279961658,3.6810909
shampoo,46.19526440031116,6.2343409
francis sports,44.89667400047778,6.630556099999999
proxy market,45.87467250036149,4.965895999999999
kbane,49.53704260836837,0.9625499814547741
sudmarché,44.867599400480344,-0.5240845
converse,48.328830099858216,4.108007
fruitop,44.80503310048569,-0.5724961
ikks men,46.90452720018066,6.353052299999999
opel automobiles magnolier,43.54913130054164,1.5150563999999997
coiff mod,44.79618300048643,1.4726365999999997
lidl,48.86587309972558,2.2023399999999995
l'instant b,43.783715600538486,4.2035221
alimentation générale,48.94797879970524,2.2409044
aldi,48.33501739985671,6.635331299999999
c & choux,49.18843309964578,-0.3599686
amanda coiffure,43.54727850054166,1.4784896
naturalia,48.85500109972828,2.3062259
veneto,46.56489000024627,3.330867
torréfaction dieppoise,49.926806899469035,1.078351
madness,44.92847390047492,2.4461955
le reinitas,45.43866180042047,4.3801847
fischer geric thionville,49.35495699960495,6.142083899999999
sandra,48.82361479973607,2.3253829999999995
bijouterie jouffrey,44.55919810050431,6.0765606
boulangerie patisserie,43.96191180053391,4.87976
coiffure elisabeth nouvel,48.1995998998897,-2.047296
tollens,48.8348017997333,2.2835149
la galerie,48.822692899736325,2.4151607999999998
le p'tit marchand,47.622101700026,-1.1976113
ty madig,48.37367039984723,-4.3700092999999995
goût & tradition,47.246840400109356,-2.1656179
pat à pain,45.76505560037738,3.1240057999999995
sfr,48.854530829977236,2.48574085257809
smok&co,48.72844709975968,4.5867307
biocoop des grands lacs,44.38955050051496,-1.1605698999999998
les trésors d'aziyade,47.904097799960454,1.9057330999999997
sylvie coiffure,43.297079100541424,-0.37378769999999994
maison bécam,47.46969230006043,-0.5490618
les blés d'or,44.60918177343407,-0.3139236024318301
boutique naudin,48.89330650898138,2.239259117859545
patrick gallard artisan boulanger la ronde des pains,44.585988700502455,-0.21247
pc center 33,44.852700100481634,-0.5391387999999999
garage gmc,47.62457660002544,6.841007699999999
chaussea,46.46719850026411,4.1189748999999996
hobigand stéphane,47.10319920013986,-1.8107635999999998
lidl,47.30136247342835,5.016187019382003
auchan,45.75783929071313,4.780850558207992
mondial pare brise,48.95547433135667,2.478975717733025
mode éco,48.644804399780405,1.822718
cave xvii,48.88203299972158,2.288517
coiff&co,48.497859099816694,-2.7471659
le grand établi,48.86966159972466,2.3949397
casino,43.71518700053976,7.2926072
la maison du temps (montres),48.25774670422472,7.453804374082886
librairie leymarie - librairie éditions anciennes,48.84985589972956,2.3448292
e. leclerc,48.961403699701904,2.0562502999999994
carrefour,43.46256433746971,3.6918728224839668
cocktail scandinave,48.71149549976388,2.2441918
fernando,49.50612119956827,2.4336844999999996
jean charles,48.69291779976847,6.182446499999999
leader price,43.43434350054201,5.2615561
optic 2000,46.67372850022585,5.5527057
eurorepar,46.483191583219565,-0.5968015835237339
mephisto,47.750336799996475,-3.3615914999999994
la sob,44.36870320051614,2.5495914999999996
ferme cimetière,50.6595297995673,3.229572552628105
yves rocher,43.34540470054177,3.2422543
so optique,48.56858089979924,7.757075899999999
deyrolle,48.8565417997279,2.3264705
pain biologique,46.90774870018001,-1.2901693999999997
spar,45.89472190035851,0.010073199999999997
bianca,48.83689699973276,8.0899491
leader price,44.16014783481627,4.095719809785337
la boulangerie rose,47.442039300066604,-0.49379029999999996
studio barge,43.8332286005374,-0.8090053999999999
salon 17,48.88586229972063,2.31958
sergent major,46.19479560031125,6.234643599999999
concession renault albertville,45.66059132702413,6.383728747025881
nb medical,50.100220499429746,1.8644513
autoeasy draguignan,43.53060010054176,6.470470599999999
boulangerie adbh la festive,48.73297579975856,2.4502448
emotion,50.35626739937401,3.5219385999999995
institut emilie jolie,47.38722270007875,-1.5575868
tabac presse,47.236824500111496,6.021968099999999
couleur de sable,48.87941559972223,2.1829420999999996
ad expert garage bay,49.00883809969013,2.0824092999999997
bonobo,45.81264100037056,3.1081804
l'hédoniste,43.51374430054183,1.1773735
garage du célé,44.53556889664977,1.7481994484767451
carglass,46.90860270017983,6.3403949
miele magasin d'usine,48.94629649970564,2.4705886
point de vente sncf - gare de saverne,48.744532599755686,7.361660599999999
ikks women,47.39392010007727,0.688037
thiriet,46.27540333870554,5.660069756090129
volkswagen,46.64509874178595,-0.22488662133824577
le camilius,47.65860780001765,0.6488006999999999
la foir'fouille,50.641891099315686,2.9704466
matheron,45.070271800461384,5.550617
carrefour contact,50.21116494097628,1.778673371854008
lorenzini-pham,48.692024999768705,6.181677799999999
au petit caprice,47.95849059994757,-3.8275163999999995
gamm vert,46.646710431731755,-0.2388089356708501
havas voyages,47.32296340009284,5.035808
huitres georget,45.69803950046424,-0.9901090000329248
boulangerie des 2 lacs,46.57405900024457,5.747081399999999
yesss électrique,47.83105383881266,3.580488804000907
intermarché,46.79327516878486,4.445606618105828
la civette des mobiles,48.949609399704826,2.3295151
le jardin de béa,43.237203500540865,1.5740157
coiff&co,45.681339500389,0.1778074
épicerie exotique,48.98166009969687,2.2944275
tchip,48.63865299978191,4.9499205
vignerons d'olt,44.54680407001674,2.714457428653179
u culture & technologie,45.825271392003046,4.60769730398322
plein sud,45.76026490037806,4.8314497
le marigny,44.34768300051731,4.766539699999999
la baguettine d'or,48.801407199741575,2.3789918999999995
why not,48.87488579972335,2.3875263999999996
zoe mode,43.758712600538985,5.8830158
lionel coiffure,48.82431499973589,2.9574643
balibaris,47.21340280011652,-1.5612883999999998
master brico,46.167620600315736,2.6302848
mistigriff,47.32169880009312,5.0366047
bruno évolu'tif,45.69153190038763,5.9120841
city's,48.25826275895219,7.453826862591169
kodak express,49.20913812194322,-0.36410033478664044
yves thuries,44.92904180047488,2.4444676
pascal coste,43.591566900541316,7.104126099999999
ada,48.88670519972043,2.2081522
garage de la place,45.14703261521053,5.749617753759869
e. leclerc,47.8019199338578,1.0427974442746977
salon des tours,48.776826599747665,1.8067647000000002
dk atelier,48.91422219971361,2.3358822
ouest moto pièces 85,46.508706300256584,-1.7773205999999997
cash piscines,43.203585900540425,2.3102983
on parle de vous,43.11923460053911,6.128452
total access,45.44212840042004,4.4095028
la fabrique cookies,48.8823723997215,2.3152160999999998
skiset,45.5721418004036,2.8106364
point p,47.12443091419824,0.9808768240443386
le bouffay spanol,47.21516850011614,-1.5527066
rach'l coiff,47.326611400092034,5.0286462
l'équipe,47.80843869998295,-3.269499
intermarché,49.904613361977454,3.645440295942508
feuillette,47.06588862267874,2.369863243473101
au brin fleuri,46.1814354062664,2.0842867323639944
station bp,49.08673619967085,4.8792908
speedy,45.77602600037581,3.1958798
au verger de montmorency,49.50044369956964,0.1458555
tg & i robert veg,49.43171298872348,-2.6150118043604693
cellier gourmand,45.63710770039501,5.1089547
baptiste delcassé,44.10421407583159,1.0845387120585772
kiabi,49.16197116798256,-0.2926588381754709
yves rocher,48.07803969991901,7.3607451
carrosserie vincent,45.81576520037012,3.1440899999999994
la manufacture,45.90091640035759,6.125774999999999
maroquinerie le cuir,45.58592130040181,5.277517399999999
ovp,43.296438500541434,5.374266999999999
jennyfer,48.85641209972794,-0.8722989999999999
florence,50.72483989929963,1.6047991999999998
la foir'fouille,47.33613856336979,0.7004926589337488
king jouet city pertuis,43.676208385087406,5.498712175657534
carrefour express,49.420477899588995,2.8095674
camaïeu,46.194441700311295,6.2351338
l'ilot de beauté,42.81326844873916,2.3747591925824105
franck laudren,46.79283770020283,-0.7332753999999999
bricorama,47.92008728561766,1.9029785755044342
denis coiffure,47.8771588999668,0.2164223
intermarché,47.41162750007335,-1.9696620999999996
shurgard,48.88137319972175,2.107803
univers du sommeil,45.936065900352304,6.082009099999999
les jardins du sud,42.62137535669729,2.775838754204557
boulangerie pâtisserie de la gare,43.70166800053997,7.257630000000001
audition bonin,48.18333509989362,-0.1296531
garage poulizac,47.91824639995711,1.0858670999999998
mini maxi,43.29131450054139,5.3803347
jardinerie droguerie,43.958542700534,4.774070499999999
boulangerie maes,50.62596906436745,3.05146836003373
fashion mode,48.913939499713685,2.3813714
aldi,49.14503774785684,1.7872880849734463
madura,48.861196499726745,2.3403482
boît' à tifs,44.609661200500774,2.0333477
la barberia,43.5691460005415,7.1139913
intermarché,44.745296917101356,4.744295531791773
cave à vins,43.70092400053999,3.8533381999999996
due sportswear,48.57400199979792,7.809997200000001
na'kando,44.768086600488715,-0.5801098
l'adresse,48.46959349982367,-2.5156080999999997
marie blachère,43.86763380053656,-0.4879794
road art,43.28830360054137,5.3831189
alexis barber shop,45.370376700428665,5.584516999999999
ds store,48.864644299725896,2.3768169999999995
cultura,44.878812700479365,-0.568949
citroën select,46.633074000233535,5.2181143
chris avenue,45.75056260037942,3.0794137
rubis sur l'ongle,45.523604100409855,4.8725956
le fruitier du vieux massy,48.729689499759374,2.2758839
l'hair naturel,47.443261000066336,-0.4830957999999999
pharmacie sebag-meimoun,48.876856699722865,2.3359300999999997
pimkie,45.70029810038642,5.0098662
bessec chaussures,47.65938640001746,-2.7914961
king jouet,48.01416979993431,-4.0861398
garage de l'hippodrome,45.6807238003891,5.9065501000000005
optical center,47.08589710014348,2.3985843
la bonbonnière,46.84663970019221,-1.8792309
attitude diffusion,48.11234969991076,-1.6764832
intersport,47.116467683906855,2.3744040328076332
el colibri,44.33870446863682,1.2108885511138952
intermarché contact,44.35464950051692,2.5758616
kabayan store,43.284896800541325,5.3818162
mixt'hair,49.12987629966022,4.531912299999999
château mazivert,44.936359546755405,1.0213839469745787
mercury center vannes,47.64921750001981,-2.6996387999999993
optic2000,48.86978249972462,2.2278368
stokomani,45.25663590044172,4.6897415
wagener,49.46075249957923,6.030176999999999
l'école des chiens,48.87264119972391,2.2259095999999996
la cure gourmande,43.52991810054176,5.4481619
superette s.a.p,43.7297743005395,4.021612
chaussures gerard,47.575424400036624,6.7578059
carrefour city,48.81354494264678,-3.4433194270596017
anaël,42.37243520051073,9.5294414
malabar princess,45.75880710037825,6.5351883
maison de la presse,48.068868499921216,6.873934099999999
librairie oberlin,48.5793344997966,7.7479126
super u,44.76529161799462,-0.48465103680977395
géraldine et ludovic emeraud,47.84184279997511,-1.6800619
marie laure coiffure,47.55331960004163,-2.482628
la baratte des saveurs,48.849825099729586,2.2722599
lorraine pièces poids lourds,49.11639095544164,6.277572963114629
poissonnerie,49.660648599531264,3.3824208999999996
annick goutal,48.581892699795965,7.7492157
kid's culture,45.19001350044899,5.7268198
dépot de pain - salon de thé,44.338458000517804,1.2116227
bureau de tabac de la valette,45.46979220041662,4.5141758
mr.bricolage,49.610796079180844,0.7778245808149431
hasting,48.83067719973432,2.3296226999999994
z,48.636944599782346,4.9504266
creativ auto,47.4707451000602,-0.6222
carrefour market,49.36604776634779,1.3506006826571284
cedeo,49.26992678505114,4.069260787722191
espace diffusion,46.563548000246534,3.330791
la cave de nozay,48.66071419977647,2.2407451
les bougies de charroux,46.98968340016338,3.1626824999999994
lidl,43.290081829609264,-0.40421338002709917
témoins,49.183198599647056,-0.36359059999999993
bonneton 2 roues,44.61698130050026,4.4031923
l'étape vientoux bio,44.092159800529316,5.4087577
picard,48.802602499741276,2.4348443999999994
okaïdi,46.84649470019224,-1.8788488
maison de la presse - tabac,46.291603400294946,4.306844099999999
recycleart,44.817330300484656,5.7521403
intermarché contact,50.642113077803586,1.742715645450513
coiffure style,48.89060219971943,2.3783794999999994
minelli,49.41898099958938,2.8242367
erbé,43.28430020054133,3.5122105999999995
lafon,46.64680100023096,-0.250722
la parisienne,49.425286599587835,1.0881826
studio daniel t.,43.51284540054185,1.1753955
miss elix,47.89994169996143,1.9059870999999995
muse,48.885827899720645,2.3361472
ador,48.813029899738694,3.0837059
tabac presse,47.88649749996461,6.2728905
lovely chic,48.92396989971118,2.254105
beebike,47.22601440011381,-1.5529657
mim,48.512474799813106,-2.7589785
profil +,48.73031217487434,-0.5804724226725079
la foir'fouille,49.21221607792902,4.045772112549007
my cherry nails,48.819261899737164,2.3231753
tabac de l'europe,45.757453200378436,4.8355519
maison alsacienne de biscuiterie,48.5801442997964,7.746115200000001
chloé mode,46.33727330028708,5.1291199
caves bourdin,48.8976904997177,2.2474415999999997
fromagerie bocahut,47.47275157990003,-0.5546437852492629
ane thon,48.848224499729966,2.4362701
autosur,48.894885899718396,2.3157281
face & profi,48.57898119979668,7.741900099999999
profil+,48.438781499831244,0.09577629999999998
chez meste,44.13336150052764,0.33671360000000006
koumal,45.75584320037867,4.8307881
vival by casino,43.74939399142818,7.1436941025795795
coiffeur et compagnie,48.137844408209276,-1.69594983239505
bouygues telecom,46.674541500225686,5.540867899999999
pfg,48.81950799973709,2.3203897
carrefour city,49.29040709962075,1.0006329
cap aventure,43.28529900054134,3.513075
boulangerie le vieux cressely (alain motté),48.72413729976074,2.0918717
tabac le sphinx,43.34710650054177,3.2181679999999995
de neuville,46.78128510020508,4.8570758
panier des fées,47.93681529995271,-1.4297852
carrefour city,43.69237870054011,7.2482203
casa,49.43149889958633,1.0853046
picard surgelés,48.807512370245355,2.2372957326012104
sas moto starter - clean auto,46.574096962092945,1.9770433610920022
platinium,48.28781289986822,6.9495038
bouygues telecom,47.469998600060364,-0.549766
distri bio,43.65240650054066,3.5504903
relooking coiffure,47.21090610011705,-1.5658773
technique auto,50.47803094943894,3.640705750015729
aldi,49.14922928328556,0.9158936131222215
aux délices de jussieu,48.84657729973039,2.3541793
le saphir,44.853820800481536,-0.6113299
station esso,46.31347780029118,1.4194037
jean marc joubert,48.863567999726165,2.349818
boulangerie patisserie,49.92973039946834,2.9357726999999993
utile,43.815427516225036,5.743634687465206
avenir de la mode,47.629627050426,-2.1000334999842014
but,48.82617769668307,1.969226976723286
tabac-presse le berriat,45.18836370044916,5.7120027
pop white,49.117975999663166,6.1789074
"presse , bureau de tabac du maine",47.83906189997575,-0.31819749999999997
venet laurent,46.67411640022577,5.5485013
freedom,46.32034530029001,-0.4583321000000001
besson chaussures,48.560380499801276,2.635742
boulangerie degermann,48.46232929982545,7.480746999999999
pompes funèbres de fismes,49.30772889961649,3.6800687
maeva makeup,45.90699660035668,6.134050299999999
le pain loré,44.197308200524866,5.944299
tabac presse,47.656285300018176,5.288690699999999
cuisine & design,42.62274170052346,3.0109531
maison stalin,49.42238139958854,1.1262079999999999
les poilus - toiletterie,43.8853161005361,-0.49374480000000004
metamorphose,48.869040199724814,2.2279548
le founil de martres,43.079763799726685,0.6436550994809972
u utile,43.71919125150143,4.175537414182145
damart,50.723609999299846,1.6059675
etablissements colin,48.5537514213624,-1.5059557418769964
épi service,47.45985780006262,-2.0047929999999994
montres&vous,43.94551320053439,4.8054806
dalbe,49.008240199690306,1.1709474999999998
kitetou,43.49369450054192,-1.4765951
garage bonnet,46.98419773464926,-0.4579174879376483
garage kléber,44.90849263419132,-0.2335689388227038
alessandro,48.871781999724114,2.3265178
o bien être,48.80944069973962,2.5753549
laetitia,43.707693200539886,7.2663199
undiz,43.6039899005412,1.4458163
brothers eat pâtisserie,48.87020899972452,2.3608609999999994
schmidt-lutz,48.582721999795766,7.7487449
lidl,47.20336095641497,-1.4915765604083178
garage renault vidonne,46.01751570033977,6.618965
richard michel,48.804734599740755,2.1458186
aldi,43.66482594808924,4.636128421112117
olly gan,46.845320700192474,-1.8783251999999995
oui oui bunny,43.28475210054133,5.3815278
moa,47.16065340012774,-1.5471144999999997
willy morlot coiffeur,47.3901205000781,0.6922482000000001
devernois,47.79345779998643,3.5686233
boulangerie guilbaud,47.720033600003504,-1.9751317999999998
agora copies service,43.286757000541364,5.602447899999999
nails by hln,47.21511820011613,-1.5622565999999998
ambiance déco,49.11479809966396,6.178554199999999
recapé,43.58531540054137,1.5283635
darty,48.757105996066805,2.372614628402601
mellow yellow,43.29297460054141,5.3758297
sap retouches,48.87323289972377,2.3739590999999995
ju'sto,43.60668480054117,1.4447581
ambiance pêche 34,43.67683000054034,4.117100299999999
top office,44.10584550052879,4.0902603
carrefour,45.06827980046159,5.0505961
padirac,44.85251810048167,1.7435759
la route du sel,43.038516200537465,6.1319868
epicerie,44.92578930047516,4.9024214
norauto,49.6013017228966,-1.6000464681463125
mango,48.77972359974697,2.4574927999999994
boulangerie pons,43.476443700541964,6.182995699999999
nathalie et loïs,47.2214389001148,-1.5478479999999997
dessange,48.866703999725374,2.3661700999999997
boucherie lebossé,47.37896940008056,-1.1878092999999998
recyclerie de la tournette,45.89251280035886,6.2471191
m.16 auto,45.67688133872976,0.1579964364548191
boulangerie echelard-coupel,47.80380819998402,-1.7410203999999998
coiffure homme enfants,48.83422669973345,2.3082543
maison vianet,45.758400600378316,4.8367705
sandrine l,49.47254699957638,1.049425
station service e. leclerc,48.79826745307758,2.0357647365945883
jean louis david,48.72447049976068,2.2618731
5e saison,49.18737119964606,6.145688900000001
burberry,48.85229719972895,2.78492
stm,45.014747900466844,-0.0147811
oliphil,45.89632060035827,1.2819080999999999
bcbg maxazria,43.55240440054163,7.0214226
reynaud,43.958718200533994,4.7766655
gannier,48.88319639972129,2.1315912
domaine la mereuille,44.100068800529,4.804090199999999
santale beauté,48.84034569973191,2.3332455
laurence esthétique,49.07135559967469,3.8783460000000005
carrefour market,48.766923899750125,2.0790972
boulangerie witrich,48.03070639993035,5.972571699999999
garage cotton jm,43.53266150054175,6.412355
linge service,43.60591020054117,2.2450344
du pain sur la planche dominique,50.306537799384614,2.6118918
tabac du fort,48.80648809974032,2.5324893999999993
firststop,44.647273400498065,6.1821844
benoit-guyot,45.758671500378284,4.8326441
altervojo,48.86917399972479,2.3714267999999996
opel,49.10891307898283,1.453596269277694
sellerie iberique rioja,43.672181900540394,5.0405639
atelier indigo,44.06315340053042,1.9530846999999996
lam,43.29414280054142,5.3980811
honorin,44.88172759147347,4.878152165969472
alain afflelou,48.105566399912405,-1.6779937999999999
renault,48.7569822997526,7.5694191
cueillette de peltre,49.08552034150655,6.227210163839722
laverie libre service,49.02987749968492,3.3751803
intermarché,46.267109200299124,-0.22541900000000004
cs75,48.87988009972211,2.3177461
la lunetterie,44.25912800052192,4.648012999999999
garage voissier,45.95225060034983,3.4796355999999995
gifi,43.188220400540224,5.6038293999999995
jardins et plantes de vonnas,46.2108411636081,4.994752666264855
lutin jardin,43.73564585052981,3.8239007379294567
ford quimper - bretagne automobiles,47.97363889994396,-4.066190099999999
odette,48.8634248997262,2.3464356
l'art de la détente,49.248218990028306,0.3771009541028664
indian tamoul khaday,45.75657940037856,4.8540756
sweety,47.899762199961486,1.9064909
king jouet,46.54869930024926,3.3401849
micromania,48.89069029215382,2.2384020369241706
manelya,43.6800376116279,5.498970243122773
levi's,43.68923830054017,1.4012526
la louve rémoise,49.25803902268527,4.028205282320105
le fromagerie saint-honoré,48.87725859972276,2.2994786999999994
carrefour,48.94176249982068,4.386011738361481
sergent major,47.88685249996452,-3.9120124000000005
vulco pneus,43.638736000540824,6.9767250999999995
centre commercial les chatelaines,48.976914528142345,2.014845889070626
centrakor,43.69176480054011,4.2058185
maxivélo,48.803688499741014,2.4879403
brioche dorée,43.608838300541144,3.8825714
arturass,49.42506169958789,1.0883323
boulangerie de l'ambre,45.14678960045357,5.7169514
bureau vallée,46.290606800295116,4.812074499999999
la mie des chênes,49.19286618772163,6.000713429755102
womb,48.867429499725205,2.3462277999999994
kiabi,48.08173629991813,-1.6814991999999997
bloom,47.74755119999711,-3.3597953999999994
l'étape gourmande,45.3504771802033,5.280699620672354
starterre chambéry,45.61676810039773,5.8848882
zen coiffure,45.18749920044926,5.721469999999999
lvmh,48.866232299725496,2.3053141
au feu de bio,47.866511539986725,3.5378143445593926
kiabi,49.289350849773676,4.027196799977933
le magasin bio,45.89023460035919,0.9030289999999997
bâtimarché,48.44686251701419,5.15888006047544
saint-hil'hair,45.06929140046148,5.2439751999999995
padouk arts et artisanats,46.67393580022579,5.554242699999999
l'échoppe,46.57457690024447,3.1107563
le glopp,43.90378670053562,-0.4692454999999999
maison de la presse,43.42493661310584,6.768913404355567
boulangerie la pétrie,47.64444580002089,0.8963230999999997
casino carburant,48.81422979973841,-1.544516
les coquines,48.67182209977371,5.928779199999999
yves rocher,47.32761770009183,-2.4101257
studio sonia launay,48.19988309988962,-2.0472226999999994
jeanne d'arc voyages,49.536462599560956,0.9676222000000001
p. dupont - charcuterie,48.75406049975332,2.3023298
bijouterie gicquel,48.83331969973367,2.3243498999999996
bananakick,44.449218414481116,1.4341443163318717
marché u,47.915954546633216,7.2057833135575375
shurgard,48.92611272127119,2.225605177688305
la clinique du jouet,48.39519999984198,6.9823388
peinture elasto,48.87280298896748,2.589929886214812
arts & nature - piscines desjoyaux - spa peips 54,48.7080161299327,6.241063508257894
pfg,48.07157319992058,-0.7735237000000001
sophie coiffure,46.4667160002642,-0.8056659
café columbus & co,46.51493099697518,-1.7801662251005193
centrakor,49.907964199473355,1.108613
noukie's,43.60955470054114,3.8750847999999998
le fournil de bisseul,49.0445959996813,4.0875712
clear optic,48.897610299717705,2.220794
karine coiff',43.99716100053276,5.062129
rouge gorge,43.31621134576316,-0.35700224544387055
fraises et compagnie (e.a.r.l. de campillot),44.289368700520384,0.28855479999999994
rika,49.404440799592884,2.7862962
boucherie charcutetie du lin,47.87634009996702,-3.9160755
mille pâtes,43.66750280054047,6.9862558
c-zen,45.00166580046808,-1.2012287999999998
le boudoir des mariées,44.864215400480646,-0.6611853
mango,48.929046989599826,2.1457531301584596
aquilus piscines,46.28065260029681,4.8043215
oilivier desforges,47.99553659993875,-4.1075144
atelier de lave émaillée - emaux d'art,45.840438200366535,3.0762601
besseas,45.89778780035805,4.8411377
salon de valérie,43.255584700541064,1.1186651
abs auto-pièces,45.701140500386295,5.0059126
rocher optique,48.87976519972214,2.3178514999999997
bruno et rose,43.68036280054027,7.2305564
centre commercial jas de bouffan,43.53345767873088,5.41934075596562
carthage alimentation,43.70496390053993,7.2721726
fast,47.62754630002475,6.842393899999999
aux quatre saisons,48.023759199932016,-4.5399372
ferme des arnaud,44.27831810052096,5.0251985999999995
jean louis david,48.822104299736445,2.2061731
distillerie meunier,45.28192775181703,5.536603629905385
c&a,48.75396679975334,2.3281274
bord de marne,48.812870999738735,2.5014823999999996
cjl,43.58376790054138,1.3447249999999997
action,46.77653485668639,1.647577191211438
daihatsu - hyunadi - automobiles delahaye,43.55137730054163,1.5095656
nolenzo,47.5179925000496,-1.2936645
coccinelle express,48.570462688825884,-2.8190770547529076
corinn'coiffure,48.65706199977737,-1.9971619
conforama,43.63373661476157,1.498115284996595
boulangerie-pâtisserie sophie lebreuilly,50.51300779934147,1.637305
les arts libres,47.89961899996152,1.9230595999999998
mercedes-benz,48.62525829614827,-1.9879596247263838
boulangerie cloess,48.051607099925334,7.109775099999999
calzedonia,47.21493150011619,5.9468532
gamm vert,50.56671510159522,2.4724738274748486
deco design,43.59972070054123,1.4473964
intermède,47.34264960008854,0.6168359
vente de forfaits,42.78367330052996,0.15859430000000002
la vie claire,43.70437466343146,1.7991986995487876
midas,47.021644900156815,4.8336651
tuina beauté,48.84630689973046,2.4213862
des ailes aux pieds,43.52610360054178,5.4413003
aldi marché,49.20644704996263,2.389877986993669
super u,45.58452200148212,-0.8361828520034572
christophe madeleines,43.53036530054177,5.447724499999999
havas voyage nantes royale,47.214792200116214,-1.558569
en aparté,47.314569800094674,5.0472929
renault,46.909173200179715,6.3343932
casino,43.431065300542016,6.7549814999999995
ibf minéraux,48.822307999736395,2.3597925
carglass,47.067604700147264,5.455005399999999
de pol,48.806700816336935,-3.305308218358842
sergent major,48.559820199801415,3.2988675999999995
antonelle,47.748423799996914,7.337845699999999
doc micro,44.92677710047508,-0.6202574
vignobles de valerius,45.35023040043104,4.7564046
kazi store,48.8896219997197,2.4020735999999996
sandrine croiffure,47.700604000008,1.5077813999999998
chaussure bonneterie ducasse,44.055893300530705,0.2590501
la corbeille celloise,46.26730820029909,-0.22392059999999997
hubiz,43.455591629927845,6.48189315505668
"palmizen, sarl elcabe",43.21521990054059,-0.8912258999999999
carrefour city,48.8291371997347,2.2474232000000005
g20,48.48593100035045,6.093244000019878
cal,43.5817118005414,-1.2663929
l'onglerie,49.04479519968125,3.9582997
cave duclos maillard,47.309380900095796,5.0248466999999994
flo kath,43.848535300537044,0.6624862
lidl,48.853325199728715,2.4057615
olea bio cosmétiques,44.445383700511634,1.4416982999999999
poissonnerie havetz,50.68687259930691,2.8814660999999995
bar d'extension,49.03710199968314,1.5821375
casse-pc,49.67826989952708,1.2740142
la croix verte,48.08872869991643,-1.6939345
blindspot,48.10866829991165,-1.6823344999999998
le fournil de véro et laulau,44.202667200524616,-1.2302969999999998
valluis-goujon,45.52353700040985,4.874055899999999
fleuriste yves larno,43.94127910053452,4.9042092
flash deal,45.05392650587245,5.680216244770865
honda bike,48.89354669971873,2.329258
talent créatif,49.52482359956375,5.7630991
le vaporium,44.77492030048817,-0.34936339999999994
nicolas,48.53814179980678,2.6591957
castorama,45.636481649276334,0.12634875866179238
gifi,45.03728836575853,3.0669124582875313
diag pièces auto,48.71102639976399,3.7331001999999995
murielle,48.78918569974462,2.3188852
laveurs d'aphrodite,42.87813310053315,3.0465348
walas,49.11602629966364,6.181007699999999
carrefour market,45.845363608775415,6.150370495765668
aurore d.,44.82179460048427,-0.5940193000000001
gwen choc,48.85766269972763,2.3525871
shell,48.467001695732776,1.5793413876158842
briconautes,47.92956059995443,2.9264025
le paon blanc,48.45381769982756,-2.0445947
chez l'horticulteur,49.223566099637154,3.9626075999999992
maison canches,44.98872600046931,2.4208692
athena,50.77305449929046,3.1712137999999994
croisieurope,45.764666000377424,4.837954299999999
rendel,48.85755719972766,2.3585240999999995
mode chaussures,45.588877000401396,2.7391966
suard,43.96726800053373,4.2781607
t. dumaine,45.901403400357516,5.3473927
dojomania,49.43722849958493,1.0974433
ikks junior,43.98348575701665,4.882264214842916
coccimarket,48.74562219975542,2.1149523
la boule magique,48.865735599725625,2.3781430999999995
les jardins du chêne percé,47.20137950091396,0.5202846719335018
eloine,46.547498100249484,2.3476816999999994
intersport,45.47086740041649,6.907884799999999
la cigale,43.40222042379413,3.694841841068951
mahé,48.79801399974243,2.4860519
ecolors,43.65565510054061,1.4791675
vm - votre marché,46.47046690026352,-1.0281967
lynn cheminées,43.6137797005411,6.969671800000001
millim,50.059946354486584,1.4072720123881777
fabio salsa,48.92627949971061,2.2127447
c. optic,48.90254579971649,2.2742822
volkswagen,48.36768409984871,2.9565798
savon d'aubagne,43.29189150054139,5.570682799999999
boulangerie pâtisserie watterlot,50.18614849941072,1.6399366
electro-depot,49.187291399646064,6.145986099999999
garage pompeigne,46.858813600189805,0.9394919999999999
coiff'hom,44.24098820052279,5.0760954
entremets gourmands,49.175355599649016,-0.38729639999999993
coiffure mixte,44.40509570051406,4.1316944
tabac,49.02787739968544,1.150828
la halle aux chaussures,45.93686942799984,6.07681614916859
autohof bremgarten,47.90933548709023,7.592146384980375
sergent major,45.769468100376734,4.8791281
boulangerie patisserie de la pouëze,47.55224720004188,-0.8091695
orchestra,48.77735719974755,2.5914654999999995
télé yvelines vexin,49.11541769966378,2.0185978
utile,42.237601449042664,8.636633456238634
terra provença,44.136768200527506,4.805777099999999
auroux sport,44.682506800495425,6.0752470999999995
botanic,43.106737607679314,5.852692328425071
decock caroll,50.80324159928482,3.1114727999999996
maje,48.858298399727474,2.3581909
maison hofer,45.91882450035491,6.094080399999999
garage renault,47.87962891431086,0.19191492906305596
jaques germain,47.654722100018546,-2.7578906999999995
pic feu,45.04525572940778,6.3027520981666
redoutey,47.149207200130185,5.724168
hyperminceur,44.13635200052754,4.811577
valérie beauté,44.03292730053152,-0.9093567
chateigne,43.60523980054119,1.4420964
stasia,48.82401419973597,2.3626420999999995
armand thiery,51.03417539924358,2.3749123
garage guillot,45.948224600350464,5.656440999999999
dimitris,48.86087039972683,2.3542126
garage des 3 vallées - toyota,45.31015350043568,5.6142906
intermarché,43.48911570054194,1.3179109
téléphone store,47.717893300003986,-1.3766937999999997
mr.bricolage,48.374849021558475,2.956709377859372
le pétrin ribeïrou,43.34337810054175,5.4667215
star's music,50.6397098993161,3.0652141999999998
france fenêtres,48.99586059969335,2.2384382
boucherie galzadet,48.65107469977884,2.4578766
l'anthémis,49.84717669948741,2.2719538
cybèle,45.75313140037905,4.8257381
bibliou la procure,47.08232100859042,2.4006745020587887
etam lingerie,45.778653300375446,3.0826271
too kataï,44.36572480051631,3.4112379999999995
studio lollier,47.04634780015171,-1.6425491999999997
nocibé,43.64944230054069,3.8428063
la bonne dose,47.73733889999949,-3.428586
l'arbre aux papillons,43.253114200541035,5.422712
le marché de bessines,46.30362050029288,-0.48960529999999997
sympa poutou,48.883128099721304,2.3442207
shajmahal,48.827046499735225,2.3573278
aldi,50.14299596556011,4.821859481580064
sun factory,49.15977669965283,2.2580767
la baguette enchantée,46.08467740032918,3.9829286000000006
centre commercial e. leclerc,47.237327452950794,-0.7231024199963257
epices & tout,44.48242250050934,4.688498799999999
néon créations,43.59193030054131,2.1873106
toys'r'us,48.79180185761366,2.557370542256738
ravi pressing & retoucherie,48.793046899743665,2.3330253
dix doigts 2 pieds,45.723723800383176,3.340155
yves thuriès,43.52681760054178,5.452428199999999
centre commercial chavril,45.74768845277061,4.802417738366707
bivapo,48.891340299719275,2.3758212999999997
le fleuriste,49.8925429994769,2.2846611
esthetic center,43.47878900054196,-1.5582455
plaisirs de soie,47.12825770013459,0.9969402
mr.bricolage,48.18735360323239,-2.176007288102849
mod'enfant,48.689019799769426,5.322086099999999
ferme la barthote,43.57251670054147,-1.2075845
text' eau,43.676602300540345,4.1146121
intersport,47.70378968282906,-0.051882592454105134
vito mezzavia,41.952347200482656,8.781476199999998
ldp libr'auto diffusion peinture quimper,47.98216689994194,-4.0405655
claire's,42.669316300525466,2.8818872999999994
optique de la krutenau,48.5793343997966,7.758212299999999
iphonecassé.fr,48.83822069973245,2.3512054
salon figaro,49.286616690262875,-0.25952203274267244
duchaussoy,49.24752509963125,0.37735289999999994
au petit primeur,45.157188500452484,5.329357
l'écrin du soin,44.66734520049658,6.2294475
eurotyre,43.11622362748268,-0.033479946127469754
bijouterie brun,44.728543100491876,5.0217203
la halle aux chaussures,48.70399269976575,2.3401084999999995
summercamp,48.843040699731255,2.3302374000000006
chaussea,45.18430036427494,5.770533580388015
thouard caravaning,48.16204269989878,3.3007080000000006
franprix,48.841943599731515,2.3983227
garage monod (citroën),44.36029300051659,5.137353499999999
rubis di venezia,48.84158849973161,2.3035724
dafy moto,48.10443939991268,-1.7382645
dbcourtage,48.39146629984287,-4.486338499999999
atelier 114 - artisan chocolatier,48.92803129971016,2.0447699999999998
magnum opus tattoo,48.578875799796705,-2.0587724999999995
sarl froment dsd,43.5581553005416,4.0907005
poissonnerie du petit chantilly,47.2526306001081,-1.5946929999999997
alpilles voyages,43.61046600054114,3.8777211
carrefour,43.316028400541576,-0.42860689999999996
fnac,49.430002102151235,2.0838677849558733
phildar,47.62074000002631,6.834821799999999
la ruche des volcans,45.600565300399865,2.6911464999999994
hyp' hair diffusion,48.8993319997173,2.0754524
monoprix,48.56016079980134,3.2986506
whisky district,47.473118800059666,-0.5509761
le pétrin gourmand,48.798178299742375,2.4863090999999997
com chiens et chats,43.642165400540776,-1.4327053
changeons d'hair,43.934551200534735,4.872002299999999
okaïdi,49.206168560957124,-0.3289132319387278
vival,44.06436150053038,2.9838104000000003
barber shop,44.137760500527456,4.805116
poissonnerie l'océan,48.94464839970603,2.2502735
la cabane,46.89129380018332,-2.1326398
la baraque à sport,50.64277979931552,3.051691
boulangerie annabelle,45.18478240044956,5.7298368
audilab,48.769071999749585,6.128748
voyages lafayette,48.88016399972203,2.359863
le paravent,45.75314810037905,4.830341299999999
evasion coiffure,43.3380667005417,5.052144099999999
lidl,50.50962250135427,2.847913361041127
m'liège et autres,46.12478800032273,3.421402
boucherie charcuterie,47.26957640010444,-2.3438056999999994
la compagnie des livres,49.09241929966946,1.4827068999999997
acos,49.18763189964597,6.1445188
bd boucherie,48.8770750997228,2.3560411999999995
biocoop royan,45.631948500395694,-0.9874891000000001
renault coignières / maurepas,48.75818121970897,1.933439573147914
lachaume,45.77379190037613,4.808410399999999
les jardins de chateaugay,46.36838470028166,2.5705083
le galopin,50.41769612741467,2.9467894071937635
les bonbons de julien,45.76319580037763,4.832390199999999
boulangerie patisserie - alain billet - le moulin alpain,45.0791929004605,5.7736051
total access,48.72751489975991,3.6793282999999994
l'univers du sommeil,45.39812214955397,5.467960173076836
point p,50.45625299935311,2.8292799
c fer different,43.84465160053713,4.930348699999999
ferme espaounic,43.69064620054013,-0.6699897
renault orchies,50.47364308467291,3.2329303546128867
boucherie du parc monceau,48.879499999722206,2.3029391
cave de la forge,46.707931600219304,-2.3331174
dinan cycles,48.46430689982497,-2.057857
vélostan'boutic mairie de malzéville,48.70860049976461,6.183585
natur’elles,49.26343969962734,4.0443444
maison du convertible,50.45076719935425,1.6140374
boucherie defrance,48.84826459972996,2.4511728999999995
carrefour contact,43.23132343370897,-0.38757105053984886
cache cache,49.40740029959218,2.1132738
carrefour market,48.74996689975433,-0.027628299999999998
sport eam,48.010220399935264,0.1948246
cycles mannheim,47.79923249998508,7.117512999999999
au pain d'antan,50.18146339941174,3.2410623
jennifer,45.76011470037806,4.8342517
casino,45.572324300403565,2.8113530000000004
renaud relais,44.83785600048294,-0.537078
asian fashion,48.881965299721585,2.3582866
bd geek,48.7566071997527,2.3060834
sport 2000,42.90878720053408,0.1672213
club bouygues telecom,44.90141680047736,-0.22162659999999998
la longeoise,47.76287079999356,5.307416
aldi,49.022246954522814,2.4660712558550926
traiteur reveillon,47.6015547000307,7.4954838
pépinières de peyrefaure,45.08730160501223,-0.5143844857206804
tabac presse,43.18638328496486,-0.11507229717479878
boulangerie sucré salé,47.20151580011906,-0.9939770000000001
optique atol,49.48298965436179,1.7240842739415265
la marquisette,47.27635930010297,-1.780839
kiloutou,46.33231254846915,-0.4064360986728843
e. leclerc drive biguglia,42.60453114214533,9.43684560532102
le poirier au loup,47.4917132000555,3.9090449
alain afflelou,43.81277390053788,4.362814299999999
legend mc douglas,48.407761599838864,2.7034647000000005
sport 2000,43.91684767004309,2.1090031122810475
station avia,47.096181314401974,4.912478946171199
station carrefour francheville,45.73495843768117,4.7755960376008675
boulangerie-pâtisserie chavanon,46.15738910031741,4.1701026
switch 5,46.26658080029922,6.8407503
boucherie des halles,47.82703729997857,-0.7062866000000001
le p'tit shop,45.201490800447765,6.696632699999999
bijouterie paratte,46.30677980029233,4.827223799999999
kirthikan,48.88388159972113,2.3611531999999995
osmose,48.86315189972627,2.3486844999999996
halles pouteau,45.77069610037656,4.8334225
ragt plateau central,43.61325328352978,2.233982776787558
vival casino,43.38874480054193,-1.6481890999999997
le salon d'agnès,48.196439099890455,3.2802285999999996
raynal,43.52757970054177,5.450276199999999
équinoxe,45.64348890039417,-1.0898044
celio,46.67425770022574,5.55123
songes d'atalie,45.79665110037287,1.1369052
facettes et cabochons,43.53831500054171,6.4652
lb salon,45.599783074310096,-0.055549512244337074
la dépeche,43.63446460054089,1.3946311999999998
never the same,48.88685949972038,2.3135550000000005
salomon fleurs,45.27149880044006,5.868547499999999
allo ! toutou,49.28805186869398,-0.37286653043031026
interflora,45.134105900454884,2.2263006
kafe ona,43.49432760054192,-1.529336
une pause,47.56396860003923,-1.6266042
micromania,43.572773667643496,3.9428664456755027
diloy's,43.61133600054114,1.3313043
le 48,44.846702047457164,-0.7211909316223469
l'épicerie hann,49.49365669957128,5.973520699999999
superdry,50.635226999317005,3.0635453999999998
la civette st jean,48.53959089980642,2.6619477
red zone,45.59439780040068,5.896088599999999
boucherie  hippodrome,49.23736089963374,4.0045289
mélanie coiffure,47.199043082891286,-1.430472789416371
hygena,49.53237770266649,0.9671540841274131
auto centre pneus,47.79947845984216,3.57723357208764
orange,44.10084680738766,3.0781382367329746
lavotec,50.69466525383486,3.152321874964523
centre ks,43.452618200542,-1.5735758
metro équipement,49.138029510962724,6.179956146364701
cuisines & bains,48.88048099972196,2.28707
boucherie zakya,43.67796400054033,7.226812099999999
pacific tattoo ii,43.5832243005414,7.1201161
atelier 100bon,45.7548383003788,4.829859599999999
art et fantaisie,45.935029600352465,6.631541999999999
mini vague,46.4432801002684,-1.6710930999999998
poiret habilleur,46.13308290032138,3.4568216
la maison de la presse,49.518804099565216,0.5333447
kiabi,48.13639425185041,-1.6958263662184576
o délice des saveurs,43.97946390053333,4.903989400000001
page 189,48.8505492997294,2.3817661999999995
biguine,48.892893999718886,2.3443759999999996
les délices d'alice,45.95692990034912,2.1696514
epicerie solidaire,50.66883079931044,3.2009592999999996
sensation cinéma,45.93323810035272,4.7147857
monnaies médailles 17,46.16198220031666,-1.1512014999999998
générale d'optique,45.654603700392656,6.3579688999999995
artisanat monastique,43.59918510054125,1.4490694999999998
optic 2000,49.3945319995953,2.7942184
bricorama roanne,46.03418160033716,4.0641833
stadium,46.84548050019245,-1.8787877999999996
weinberg,48.69285949976851,6.182267799999999
champagne bertrand-lapie,48.83213679973395,4.5293235
garage renault,45.53293832902184,2.148979433396134
l’atelier de bô,47.39561130007689,0.6887886
keiflin & fils,47.577567232621476,7.535823626219824
grand frais,50.39797893974754,2.972775613987645
entendre,49.15951889965293,5.3864313
soins du visage et des mains,43.29979180054146,6.1830931
au pied du temps,47.81555189998129,6.381104
structure coiffure,43.532867000541756,1.2271579
spa bien-être baugé,47.54337640004388,-0.10569439999999998
kim's pressing,48.672053199773664,6.1536601
sexy store,48.882953699721355,2.3346139
nerolium,43.57817874798565,7.052796713047784
maison mitron,49.455182899580585,1.1248844
day by day,48.84777519973009,2.3188690999999997
à l'heure du thé,48.84378299973108,2.3519972
bicyclopresto,45.195137900448444,5.7141115
le monde au naturel,47.00870760015946,0.08408589999999999
poissonnerie le homard bleu,47.45203740006438,-0.5551657999999999
bally,48.87006759972456,2.3300067
boulangerie de montchamp,48.921616199711764,-0.7671366
comyx prestige,49.893262099476736,2.2941337999999996
mci,45.10017870045839,3.4951991
les quatre filles,48.849553299729635,2.3745231
la lausette,44.34985160051719,3.9477609
cap couleurs,43.11543517655798,5.852479494495498
la sélection du fromager,43.60923050054115,3.8895329999999997
attitude,45.586813700401684,5.277653099999999
halal marché frais,48.709417299764375,2.5267537
carrefour city,44.82455570048404,-0.5780165
au four à bois,49.65261269953317,3.2873432
produits russes,43.88987440053598,-0.5028091
picard,48.8618228997266,2.3539963999999998
institut beauté océane,48.180253299894346,-1.9451081999999995
les halles saint-pierre,47.25892827911983,-0.07572175938689528
bar du centre,48.399306999840945,-0.09944379999999998
jwell,46.30473080029269,4.8336325
le studio,48.59596609979249,-2.2902697
sarl darrigues,43.35397830054181,-1.5498487
le verger de courbevoie,48.89611954743722,2.2540959279896895
total,50.934854899260856,1.8174873
le soulier,45.18938060044906,5.7275566
maison poulet,49.17085599965013,1.0364793999999997
monop beauty,48.86489969972583,2.3743271
leroy merlin matériaux,48.53478758576397,7.692237423024199
le comptoir de mathilde,47.468505100060696,-0.5522015
festivités,47.27559445596316,5.005430306778692
world travel,49.46742989996498,-2.57936054751632
patapain,48.2695064998727,4.0880167
marche u,45.98457870034488,6.927317899999999
proxi,48.433676899832506,2.4570106999999997
bréal,43.316070698651856,-0.35810424967107685
paul,48.87629307817546,2.3239161990851507
kiosque,48.51648299981279,7.706047799999874
lavomatic,46.192246000311656,6.2351973
station service e. leclerc,47.97256374976743,3.5108934320000666
coiffure valérie,48.55992959980139,-0.7295272
piscine plus,43.5756131024334,3.861503744698465
esthétiquement vôtre,46.924920300176545,6.3445294
aux produits du soleil,51.03059489924418,2.3704667
coiffeur messieurs,45.18500810044952,5.7198498
cartouches service,48.40910879983854,2.7043697999999994
laverie,45.442366700419996,4.4202636
ixina,43.55461900054162,6.9559363
l'esthétique à la campagne,49.19166866265889,-1.0306477076217875
camille albane,48.46161869982564,7.4827825
pressing,48.90187809971666,2.156007
8 à huit,45.93048410035315,6.767041699999999
cache cache,44.063140370119164,1.0980839383940832
parfumerie e. leclerc une heure pour soi,46.22050289180533,5.241870068863479
norauto,43.460764300541996,3.6913162
ti bara,48.62900629978431,-2.4623345999999997
vernature,48.83741669973264,2.5186158999999995
la vie claire,45.565271400404505,5.4466504
brioche dorée,49.00464669969119,2.5685068
vertbaudet,47.37498870008144,-1.1958668
riu paris,48.81404979973844,7.7893964
nissan lille,50.62599890464756,3.1227737771746766
coiffeur,46.751958600210806,2.1768036
mots et cie,43.215193300540584,2.352074
prêt à partir,49.73472539951373,4.7539777999999995
danimo,49.437173194242824,1.1280789590971902
gifi,48.74257237558939,7.378069442324317
brico cash,43.601348806350934,5.002984150822741
la malle du bonheur,46.48283020026128,-0.5981507
belair,48.111427199910985,-1.6803515999999998
la bonne brioche,46.502878600257645,-1.7783558
phone repair,45.774440200376056,3.0870627000000006
le pain des alpages,45.373225000428334,6.5802567
optique collé,46.168316500315626,1.8703492
l'essentiel,44.895122100477934,-0.15521799999999997
groupe courtois,48.84621369973047,2.1318595
kiki la coquette,44.85449790048149,-0.5946869999999999
avia,48.05266659669548,-1.6099515970557996
vision plus,50.97848028489123,2.0448568315744717
pépinières gourdange,49.69765749952247,5.2906036
la vie saine,46.12386840032288,6.091902
bio vendeville,48.98368379969637,2.2279916
aux trois gourmands,48.79030659974434,2.6555006999999997
top vaisselle,48.10796899991181,-0.07607199999999999
librairie apostrophe,48.11113429991105,5.1392132
hem & vous,48.57766269979702,7.750896900000001
magasin action,49.234108699634554,2.4619799999999996
orchestra,45.05795660046262,5.0975206
vouriots,46.06935630033161,6.5608483
bmw,47.228520977134,-0.13384950097608425
station service e. leclerc,43.180739800540124,2.9696729
quiksilver,50.357003099373856,3.5226562999999995
u express,43.97677497118431,0.007713556615816675
euro repar,49.42344449287676,1.1056682425579283
rikani ahutai tatoo,43.29870990054145,-0.3692824
le fournil des halles,48.10795479991184,-1.6802897
naturéo cormontreuil,49.215893399639015,4.0599089
institut té,50.64457229931516,3.0333742999999997
maud'els,45.18236200044981,5.6973679
gt spirit,45.8419344855591,5.056266268242872
peugeot courtois automobiles,48.61281787915416,-2.047801437084367
pétale d'or,48.79291569974367,2.3333609
opel altkirch wolfer,47.62945830002434,7.230074099999998
yam cosmétique,43.6035114005412,3.8896193999999995
viva la vie,47.20158060011904,-0.9929938
botanic,46.26003917268233,6.030015818245453
marie blachère,45.742101700380616,6.4227593
camaïeu,49.11291589966441,6.851839199999999
king jouet,44.0575762366834,1.100610352391512
proxi,47.097750700140985,-1.4900805
l'art du fil - broderie,44.93832350047402,-0.23353649999999998
point vert,49.6259233995395,3.2188190999999997
zen et fashion,50.35183279937497,2.5919344999999994
dessange,49.09158799966968,1.485123
le petit chamars,47.35073141205647,6.361746399333208
camara,45.18758070044924,5.729065
en passant par la lorraine,48.06999569992095,6.8763996
optic 2000,44.350336700517154,2.5734123
la halle aux chaussures,49.453719399580926,2.0978406
kiosque,48.871832099727555,2.3006634999980693
laverie automatique,50.368098799371516,3.1887039
chakra noir,47.21676580011579,-1.5547283
citroën,47.767219799992546,6.090953899999999
max mara,48.86805999972504,2.3245341
bleu marine,47.23644770011158,6.0256911
maxauto,42.692588400526446,2.9200746
pierre et parquet,48.05863569992366,-0.8071608999999998
leclerc animalerie,49.590852098065106,3.648259361136436
secrets de beauté,47.871965299968046,-3.5485105999999997
coiffure racine carré,47.8853304999649,1.8807942
boulangerie,45.202999900447594,0.13584559999999998
mobalpa,45.75133999885414,3.1590851694130575
le cœur de pontault,48.781761199746455,2.6003828
padd,49.167265499650995,-0.3642983
tahassy,48.806986699740214,2.472892
oxygène coiffure,48.870128099724525,2.3428541
nexxen multimedia,43.49103340054193,-1.4721449999999998
marie blachère,46.06453930033238,6.575678099999999
pains & compagnie,44.08014750052979,3.6429996
proxi,43.15528450053972,6.4459771
intermarché,50.48074807322535,3.244744813173823
osmose,48.870407999724456,2.3726728
quadricolor,46.978045400165755,4.770200099999999
alain affleou,50.72510679929958,1.604838
gémo,50.428397999358886,2.7904229999999997
april,49.27117569962545,2.4836819999999995
aubry-cadoret,48.865290099725726,2.3577897999999995
cave corsica,41.59140560045239,9.2821296
calzedonia,42.77590880052968,2.9132641999999995
cristallerie lehrer,48.71163310345783,7.216815403934714
boulangerie delbassé,50.48903979934638,3.350867
agence ludique,48.8533696997287,2.307896
hanriot laetitia,47.41119770007345,2.9264565999999994
brume et myrtille,45.76945690037674,4.8510955
fruits & légumes,48.77485219974817,5.1596139
intersport,48.53251479980817,7.6945465
croisière,48.87645805530672,2.3249710905922916
mellow yellow,48.847269799730206,2.4366326999999997
evtt provence,43.24325370054091,5.3694749
pod' garage,43.88914633367769,5.872318464322139
lidl,48.57627404534596,-0.37277446808856557
vival,43.90784270053549,4.1945639
point p,45.921674200354474,6.0891187
sens unique,49.18291809964714,-0.3692247
super u,44.62292625174184,-1.0260272290582184
syrah et compagnie,45.06988970046143,4.8395209999999995
bmw/mini bayern reims,49.21766150009162,4.043970399900633
antinea,48.87111919972427,2.3681754
ozone le vapothiker,48.5618952998009,-3.1520766
funérarium guy lemarchand,46.67917400022481,-1.4298373
l'annexe carrosserie hangard,49.46581089957801,1.0414507999999998
chaussea,49.19755229964354,5.9958128
france pare-brise,50.361354399372956,3.5194211
gamm vert,45.438795710981296,-0.437223693408929
amarillys,45.51358480041111,-1.1245477
fresh primeur,45.15083790045315,5.705619
cejie coiff,48.8859983997206,2.1711712
maison de la presse,43.06477170053803,0.148755
en vogue,45.187344200449274,5.727678599999999
spar,43.77101270053875,7.4935615
colruyt,48.39117209984295,6.9731663
lola degrif,47.09335280014192,5.4939603
aldi,46.42147630965609,0.2504063587020173
maison du matelas,48.1540690999007,-1.7046884999999998
gifi,49.05374939967903,2.0553270999999995
lcl,49.19097149964516,-0.3598758
swarovski,47.280069257668295,-2.2122934944078034
carrefour market,47.58627210003417,1.3348016999999999
jardins de campagne,48.10604939991227,-1.6663693999999998
toyota,48.56590268809735,2.6312417354657804
beauty success,44.8541472004815,-0.5937324999999999
picard surgelés,43.466016200541986,5.463209099999999
la boulangerie pasteur,45.747683000379816,-0.6368965
jérôme kohen,45.769662600376705,4.8576146
comptoir de la mer,44.738646200491104,-1.0922268
bréal,49.537091899560814,0.9666866000000001
l'isle des tattoos,43.613807800541096,1.0813928
laurent coiffure,45.12984150045534,1.3003964999999997
les lavandines,48.90759089971525,1.2753227
la mousqueterie,48.99464049969366,2.2371885
la tour de l'horloge,47.16594820586946,0.24332826133289923
la cave de régusse,44.08929470553876,6.227293469556456
micromania,43.61057340054113,1.3333830999999998
le 66,48.870882199724335,2.3053668
réné massonde,43.340438900541734,-1.4480898
bibovino,49.119438899662796,6.1725506999999995
bali-la,41.59058930045233,9.2801073
imprimerie de haute provence,43.924217100535024,5.8915638
coiff'line,49.381537999598464,3.3171153
pharmacie des tournelles,48.79799159974243,2.1268026
épicerie boulangerie,47.141444500131804,4.8774901999999996
éternelle audition,48.89699999971786,2.2479770999999995
laverie m g,48.89235439971903,2.3635235999999997
la corbeille à pains,48.83744179973265,2.2895434
saint-jean,46.030653900337725,4.313840099999999
boulangerie beaujolaise,46.11160640032486,4.734352999999999
librairie de la mairie,48.804826499740734,2.4193204
alimentation de saint-mitre,43.342639800541754,5.4200679
specsavers,49.185412899646515,-2.1043899999999995
sucré salé,47.07611970014551,-0.8396759999999999
plaisirs du vin,44.179593554015284,0.6210404198218034
micro épicerie l'entre2mondes,44.77258640048836,-0.34713229999999995
mil et une fleurs,46.610059032272794,-0.41822560637968376
traiteur sarry,46.20669360030927,4.3391405
moa,48.083038562429266,-1.6800276245026415
american apparel,48.86929909972474,2.2841723
quatrehomme,48.89299999971885,2.3432009999999996
color'i,46.33614200028727,-0.40477739999999995
feu vert,48.36862098652494,5.705369332010166
irfan communication,48.875622199723175,2.3591321
chez jean-pierre,43.08801720053853,6.076758699999999
méline,44.89652060047779,6.6348436
total,43.452121000542,3.4181328999999994
fringuerie saint-vincent de paul,43.604049800541205,3.8741444000000005
serge et isabelle,43.58479330054137,1.5279082
leader price,48.834546762165616,2.641787324275572
le verger d'argences,49.127348899660845,-0.16501189999999996
la bamboula,45.604562300399344,5.8911465
ecox hvc,48.70271839976606,2.0693240999999998
carpy,47.31408990009478,0.6626235999999999
côté fleurs,49.41692019958987,2.8260068
le gwenn-phil,48.55393499980287,-4.086004499999999
artigiano,43.66629500054047,1.4299942999999997
lafitte,43.889025900536005,-0.5009205
boutique de la cave coopérative de montpeyroux,43.69570885068892,3.507122349974831
mcs,45.0469354004637,5.059586499999999
la boulangerie de l'artisan,47.19989160011942,-1.5200833
barbershop césar,48.11517789991008,-1.6788944999999997
évasion,43.12053510053913,6.130511099999999
lyca mobile,43.608267000541176,3.8719651
boulangerie & épicerie,48.5039296998152,2.8608479
super u,48.84308549467396,2.6229643992548652
charact'hair,45.75040130037943,5.1731504
anémone,48.291782999867245,4.0746374
look coiffure,48.95070229970456,2.6011153
élégance & bien-être,49.07953649967266,6.1493678
ana paula,43.601498500541226,1.4444231999999997
boulangerie leseur,43.615924700541065,3.1590151
boucle au vent,45.935399900352394,6.6307654
a one printers,48.88998629971961,2.3612987
cours des halles,47.45208120006437,-0.5552462999999999
vincent sports (skiset),45.05615080046279,6.0775585
goût de pain,43.53421320054174,5.4154527
bazar de filles,48.86082389972684,2.3621727
géant casino,45.99545010034322,4.7328443
institut joy,43.43954110054201,-1.5905487
les saveurs d'aliénor,44.90491210047704,-0.2253764
le salon,45.47748030041567,4.510874099999999
générale d'optique,45.80346260037189,4.8582369
carrefour market,47.62040204762777,-2.912589684639106
hb coiffure,48.87811109972257,2.3736131000000005
l'aparté,44.241544200522775,5.0761185
brico dépôt,48.055491499924436,-0.7376590999999999
boucherie charcuterie,43.88863060053602,-0.49954480000000007
le mot de la faim,47.540612500044524,-0.6155859
le porte reine,45.56406970040465,5.9209476
cha time,48.865180899725765,2.3365021
gift shop,48.853362699728685,2.2902348
biocoop la ramée,43.576048100541456,1.3487507999999997
zôdio,47.323623387210105,0.7099254861329026
vival,50.06121809943846,1.3705927
boulangerie-pâtisserie morin,46.1390471003204,4.6412676
roger patrick,48.87607809669544,2.302505085549122
sos informatique,47.88873629996408,3.5236014999999994
espace atelier-exposition vente,44.50459570050792,3.6680225999999996
musée du poiré,48.58765459979455,-0.8064704
comme à la maison - epicerie éco-responsable,46.299026000293665,-0.8058757999999999
peugeot,47.31734801187786,2.258477317754697
maison de la presse,47.47994660005814,6.733667399999999
richard coiffeur,43.642469500540784,7.0088162
az motors,48.5874425997946,7.686924
kawasaki la défense,48.901117599716834,2.2597555
edelweiss pressing,45.22251170044549,5.8125628
garage premier,45.171889200450934,5.7524344
institut de l'ongle,49.48958629957225,0.1073781
agence club med voyages,48.82618729973546,2.278288
trident  fournitures pêche,43.514054900541836,4.1390206
boutique parc du petit prince,47.861321299970534,7.297397600000001
l'orge,44.91244530047637,-0.4857808
pb cosmetics,49.2543102996296,4.029271299999999
caisse des forfaits cmb - aiguille du midi,45.918253800355,6.869768999999999
coiffure florence gazel,43.62274050054101,3.8451025999999993
helenys's coiffure,44.82794440048375,-0.5686501
charlotte et juliette,48.89274309971894,2.1307063
boulangerie sylvie et pascal hugot,48.89898394992047,5.329397656421957
graine de pastel,43.59967990054124,1.4488555
audiogram',46.78260640020482,-0.8379415
rina kazan,45.77703780037567,3.0833690999999996
saxe optique,45.756928000378515,4.846563299999999
krys,49.18396489964689,-0.36221099999999995
la grande récré,48.928710291696845,2.1462345063601185
la bergerie des roches,46.21817600030736,6.424118
tout net pressing,47.36692010008322,0.7248896
carnet de vol,47.39247470007759,0.6886721
escale beauté institut,48.221286299884405,-1.7900187
tabac presse du livron,46.18663890031261,6.248041199999999
boucherie leclerc,49.51937219956506,0.5349933
peugeot,48.712223149096474,2.4494304397126476
l'indéprimeuse,48.88227069972153,2.3312837
hobs,43.53050280054176,5.419262599999999
gaïa,42.691195900526374,2.9218866
scottage,43.89103290053595,-0.5014558
la vie claire,44.85019460048186,0.5358426
boba tea factory,48.82626219973542,2.3590195
mi am'or,44.12044500052818,1.1215204
socoo'c,45.21808508823392,5.680782735228267
krys,48.37394679984717,-4.3697806
élégance coiffure,44.00515960053249,2.6957230999999995
la fromagerie de caroline,45.18564540044947,5.711679299999999
rembert thierry,46.10748280032551,-0.7509603999999999
r&m,43.52828300054176,5.4515547
elégance coiffure,50.369407999371255,3.5523190000000002
st-philbert automobiles,46.98597470016414,-1.5204248999999999
glassint,48.812016999738965,2.32653
espace sport côtière,45.82281490036909,4.993792599999999
mini cocci,48.89941229971727,2.3139975999999995
lidl,45.785122671715456,4.828016307346576
renault,45.909778800356264,3.3311464
t'y hom'art,48.779016599747145,-3.0480307
cash converters,49.00638549969076,2.1731387
c. lantheaume - peugeot,45.83891740036674,1.1943221999999998
proxi,43.32940290054166,5.3653756999999995
cooper spot vintage,46.15942850031707,-1.1505920999999997
garage de la rotonde,45.76974862217031,3.0905003392237984
vilanova,42.67060300052553,2.6202946999999996
intermarché,45.80718421571809,3.1170439305285633
multi poils,49.30790269961646,3.679593
la petite pause nature,44.84073950048267,-0.5795707999999999
le carré biologique,47.95952399994734,-1.4953276999999998
magik dépôt,50.72682749929923,2.7484532
lidl,45.93847994093868,-1.3080243570091894
hubiz,48.74461559975567,7.3622034
il était une fleur,45.277378700439385,6.343921
mathieu,45.89377910035866,3.1138051
boulangerie gutierrez,42.963653200535624,1.6036556999999998
carrefour,46.31723493134106,-0.4807917264353945
atmosp'hair,43.5003827005419,6.644298699999999
edf,47.90033439996135,1.9046931999999999
chemiserie tricots,50.17600589941296,3.2331731999999995
colibris,45.767215200377045,5.003681199999999
gedimat,47.08245651039841,5.492098828712491
picard,44.824570900484034,-0.5909149999999999
sn diffusion,44.04387236421504,1.3877251697350703
fleuriste,46.66119920022822,-1.3997569999999997
lui,42.69794900052667,9.4485296
askip,47.20638660011801,-1.5601579999999997
photomaton,43.60957040054116,1.3940023
alizés automobile,46.72177929334549,-1.4221567702367095
le salon 21,47.469217100060554,-0.5536508999999998
point p,47.23562393408441,2.0854816997035925
intermarché,43.349571160805205,-1.4138296224605018
l'atelier vert,46.34429010028587,-1.4396076
la sablésienne,48.00464569993657,0.1979907
rs coiff',45.298424700437025,5.483577199999999
body'minute,45.76996380037667,4.862526599999999
actuel flors,48.850963699729284,2.6535668999999995
laboratoires logissain,47.03151341561163,3.1432983329311046
massa autopneu,43.7060321005399,7.260315500000001
harmonia mundi,49.44334279958346,1.0947111
guy arnaud,44.87659260047956,4.877422799999999
paquet jardin,45.207551809539304,5.76689719459174
r. vial,45.43726397735224,5.752800815083383
calzedonia,50.63409469931722,3.063435
maison ferber,48.09970249991381,7.273779199999998
la panière,45.8842385766071,6.177105607999895
julien,48.84382249973106,2.3306529
les lunettes de groix,47.639484500022036,-3.4543494
fournil,43.931684500534836,5.6374939
spiral'liss,47.05756060014939,-1.3778886999999997
ct carr,43.650838200540676,3.9583017
micromania-zing,50.41124180888063,2.97572885157096
shanu,46.19429830031133,6.2397384
franck provost,45.76348950037759,4.8428762
lionel carron,48.83124209973419,1.9430829999999997
khroma - nail bar,43.528959400541765,5.4480771
volvo trucks,48.51924276096992,-4.068479455255507
les indécis,47.77699129999027,1.6306231
meilleure audition,43.814012200537846,4.3733074
guichet transilien,48.37825099984612,2.7992216999999995
les comptoirs de la bio,43.60361050054119,1.4062976
centre de contrôle lemaire,49.91170569947248,2.3372484
les opticiens mutualistes,46.99318850016265,-0.9512842999999999
la galerie - cap costières,43.81278026934103,4.361874531051574
jb l'atelier du barbier,48.55755269980197,-0.41376640000000003
gedimat,44.425256100512854,5.7157232
les légendes d'hollywood,48.86768709972515,2.7799420999999995
eurodif,46.782047300204944,4.8539107999999995
au bichonnement,50.4195326670969,3.1374248721863376
méga fete,50.64561029931497,2.9870343999999998
pompes funèbres le morvan,48.70032937636145,-3.525520152098301
picora,43.59738640054126,1.4481175999999998
thierry,43.61616400054107,3.1584928999999997
boulangerie du lac,46.66509090022747,5.812643899999999
au chinois,45.43228220042125,4.389242599999999
boulangerie pâtisserie coste,45.19005040044898,5.717015199999999
friperie solidaire,43.12766910053927,6.013540099999999
béa beauté,43.29919700054145,-0.36542789999999997
escale deco,48.63677279978239,-2.0152295
mr.bricolage,48.79314719974362,2.334977
sebastian liarte,47.37954160008042,-2.5465774999999997
poly connect,48.870422299724474,2.3731719
feu vert,43.139771200539464,6.014883199999999
optic 2000,47.10361770013977,-1.8105695
intersport,47.283508500101405,-1.5528350999999998
honorine,48.826511599735355,2.3809672
bestdrive,43.61831112391861,3.7909437737030554
au petit pain,45.484246500414834,0.379187
garage du maine,48.84350299973115,2.3207334
lady coiff anne,48.8061910997404,2.5107365
netto,46.75549100622877,4.475611045913608
yatch port accastillage diffusion,43.11755741398963,5.932116641713442
au royaume des gourmands,47.31749170009402,5.0592465
easy concept,49.65184169953336,3.2844866999999995
garage wackenthaller,48.09481759140106,7.3058828313935305
duncan,43.69585050054005,7.272747899999999
